#version,serial,flight,call,time,state,state_name,acceleration,pressure,altitude,height,speed,temperature,drogue_voltage,main_voltage,battery_voltage,accel_x,accel_y,accel_z,gyro_roll,gyro_pitch,gyro_yaw,mag_x,mag_y,mag_z,tilt,pyro,igniter_a,igniter_b,igniter_c,igniter_d,connected,locked,nsat,latitude,longitude,altitude,year,month,day,hour,minute,second,pad_dist,pad_range,pad_az,pad_el,pdop,hdop,vdop,sat01,sat02,sat03,sat04,sat05,sat06,sat07,sat08,sat09,sat10,sat11,sat12,sat13,sat14,sat15,sat16,sat17,sat18,sat19,sat20,sat21,sat22,sat23,sat24,sat25,sat26,sat27,sat28,sat29,sat30,sat31,sat32
6, 10923, 4,N0AHK,    -0.30, 3,   boost,    0.50,  99745.00,  132.36,    0.25,    0.00, 22.8, 0.00, 0.00, 3.72,   9.84,   0.54,   0.40,   0.24,  -0.19,  -0.18,   0.26,  -0.11,  -0.33,   4.03, 0.00, 0.00, 0.00, 0.00, 0.00, 1, 1,  9,  38.3980216, -78.0648347,   130.0, 2024,  2, 10, 18, 24, 47,        0,        0,   0,   0,   1.4,   0.8,   1.1,  0, 33,  0,  0,  0,  0, 23, 21, 30,  0,  0,  0, 26, 25,  0, 17, 22,  0,  0,  0, 32, 24,  0,  0,  0,  0, 27,  0,  0, 24,  0,  0
6, 10923, 4,N0AHK,    -0.29, 3,   boost,    1.01,  99745.00,  132.36,    0.25,    0.00, 22.8, 0.00, 0.00, 3.72,   9.87,   0.57,   0.40,  -0.07,   0.18,   0.13,   0.27,  -0.11,  -0.33,   4.03, 0.00, 0.00, 0.00, 0.00, 0.00, 1, 1,  9,  38.3980216, -78.0648347,   130.0, 2024,  2, 10, 18, 24, 47,        0,        0,   0,   0,   1.4,   0.8,   1.1,  0, 33,  0,  0,  0,  0, 23, 21, 30,  0,  0,  0, 26, 25,  0, 17, 22,  0,  0,  0, 32, 24,  0,  0,  0,  0, 27,  0,  0, 24,  0,  0
6, 10923, 4,N0AHK,    -0.28, 3,   boost,   -0.50,  99751.00,  131.86,   -0.25,    0.01, 22.8, 0.00, 0.00, 3.72,   9.84,   0.56,   0.42,   0.05,   0.42,  -0.05,   0.26,  -0.11,  -0.33,   4.03, 0.00, 0.00, 0.00, 0.00, 0.00, 1, 1,  9,  38.3980216, -78.0648347,   130.0, 2024,  2, 10, 18, 24, 47,        0,        0,   0,   0,   1.4,   0.8,   1.1,  0, 33,  0,  0,  0,  0, 23, 21, 30,  0,  0,  0, 26, 25,  0, 17, 22,  0,  0,  0, 32, 24,  0,  0,  0,  0, 27,  0,  0, 24,  0,  0
6, 10923, 4,N0AHK,    -0.27, 3,   boost,   -0.00,  99751.00,  131.86,   -0.25,    0.01, 22.8, 0.00, 0.00, 3.72,   9.86,   0.57,   0.40,   0.12,   0.12,   0.07,   0.26,  -0.11,  -0.33,   4.03, 0.00, 0.00, 0.00, 0.00, 0.00, 1, 1,  9,  38.3980216, -78.0648347,   130.0, 2024,  2, 10, 18, 24, 47,        0,        0,   0,   0,   1.4,   0.8,   1.1,  0, 33,  0,  0,  0,  0, 23, 21, 30,  0,  0,  0, 26, 25,  0, 17, 22,  0,  0,  0, 32, 24,  0,  0,  0,  0, 27,  0,  0, 24,  0,  0
6, 10923, 4,N0AHK,    -0.26, 3,   boost,    1.01,  99747.00,  132.19,    0.08,    0.02, 22.8, 0.00, 0.00, 3.72,   9.84,   0.57,   0.42,   0.24,  -0.07,   0.07,   0.26,  -0.11,  -0.33,   4.03, 0.00, 0.00, 0.00, 0.00, 0.00, 1, 1,  9,  38.3980216, -78.0648347,   130.0, 2024,  2, 10, 18, 24, 47,        0,        0,   0,   0,   1.4,   0.8,   1.1,  0, 33,  0,  0,  0,  0, 23, 21, 30,  0,  0,  0, 26, 25,  0, 17, 22,  0,  0,  0, 32, 24,  0,  0,  0,  0, 27,  0,  0, 24,  0,  0
6, 10923, 4,N0AHK,    -0.25, 3,   boost,    1.01,  99747.00,  132.19,    0.08,    0.02, 22.8, 0.00, 0.00, 3.72,   9.86,   0.57,   0.42,   0.12,  -0.01,  -0.18,   0.26,  -0.11,  -0.33,   4.03, 0.00, 0.00, 0.00, 0.00, 0.00, 1, 1,  9,  38.3980216, -78.0648347,   130.0, 2024,  2, 10, 18, 24, 47,        0,        0,   0,   0,   1.4,   0.8,   1.1,  0, 33,  0,  0,  0,  0, 23, 21, 30,  0,  0,  0, 26, 25,  0, 17, 22,  0,  0,  0, 32, 24,  0,  0,  0,  0, 27,  0,  0, 24,  0,  0
6, 10923, 4,N0AHK,    -0.24, 3,   boost,    1.01,  99749.00,  132.02,   -0.08,    0.03, 22.8, 0.00, 0.00, 3.72,   9.86,   0.59,   0.42,   0.05,   0.30,   0.13,   0.26,  -0.11,  -0.33,   4.03, 0.00, 0.00, 0.00, 0.00, 0.00, 1, 1,  9,  38.3980216, -78.0648347,   130.0, 2024,  2, 10, 18, 24, 47,        0,        0,   0,   0,   1.4,   0.8,   1.1,  0, 33,  0,  0,  0,  0, 23, 21, 30,  0,  0,  0, 26, 25,  0, 17, 22,  0,  0,  0, 32, 24,  0,  0,  0,  0, 27,  0,  0, 24,  0,  0
6, 10923, 4,N0AHK,    -0.23, 3,   boost,    0.50,  99749.00,  132.02,   -0.08,    0.03, 22.8, 0.00, 0.00, 3.72,   9.86,   0.55,   0.40,   0.24,  -0.01,  -0.05,   0.26,  -0.11,  -0.33,   4.03, 0.00, 0.00, 0.00, 0.00, 0.00, 1, 1,  9,  38.3980216, -78.0648347,   130.0, 2024,  2, 10, 18, 24, 47,        0,        0,   0,   0,   1.4,   0.8,   1.1,  0, 33,  0,  0,  0,  0, 23, 21, 30,  0,  0,  0, 26, 25,  0, 17, 22,  0,  0,  0, 32, 24,  0,  0,  0,  0, 27,  0,  0, 24,  0,  0
6, 10923, 4,N0AHK,    -0.22, 3,   boost,   -0.50,  99747.00,  132.19,    0.08,    0.03, 22.8, 0.00, 0.00, 3.72,   9.84,   0.58,   0.43,  -0.01,  -0.01,   0.01,   0.26,  -0.11,  -0.33,   4.03, 0.00, 0.00, 0.00, 0.00, 0.00, 1, 1,  9,  38.3980216, -78.0648347,   130.0, 2024,  2, 10, 18, 24, 47,        0,        0,   0,   0,   1.4,   0.8,   1.1,  0, 33,  0,  0,  0,  0, 23, 21, 30,  0,  0,  0, 26, 25,  0, 17, 22,  0,  0,  0, 32, 24,  0,  0,  0,  0, 27,  0,  0, 24,  0,  0
6, 10923, 4,N0AHK,    -0.21, 3,   boost,   -0.00,  99747.00,  132.19,    0.08,    0.04, 22.8, 0.00, 0.00, 3.72,   9.86,   0.56,   0.44,  -0.13,   0.12,   0.07,   0.26,  -0.11,  -0.33,   4.03, 0.00, 0.00, 0.00, 0.00, 0.00, 1, 1,  9,  38.3980216, -78.0648347,   130.0, 2024,  2, 10, 18, 24, 47,        0,        0,   0,   0,   1.4,   0.8,   1.1,  0, 33,  0,  0,  0,  0, 23, 21, 30,  0,  0,  0, 26, 25,  0, 17, 22,  0,  0,  0, 32, 24,  0,  0,  0,  0, 27,  0,  0, 24,  0,  0
6, 10923, 4,N0AHK,    -0.20, 3,   boost,   -0.00,  99746.00,  132.28,    0.17,    0.04, 22.8, 0.00, 0.00, 3.72,   9.86,   0.57,   0.41,   0.36,  -0.19,   0.01,   0.26,  -0.11,  -0.33,   4.03, 0.00, 0.00, 0.00, 0.00, 0.00, 1, 1,  9,  38.3980216, -78.0648347,   130.0, 2024,  2, 10, 18, 24, 47,        0,        0,   0,   0,   1.4,   0.8,   1.1,  0, 33,  0,  0,  0,  0, 23, 21, 30,  0,  0,  0, 26, 25,  0, 17, 22,  0,  0,  0, 32, 24,  0,  0,  0,  0, 27,  0,  0, 24,  0,  0
6, 10923, 4,N0AHK,    -0.19, 3,   boost,   -0.50,  99746.00,  132.28,    0.17,    0.04, 22.8, 0.00, 0.00, 3.72,   9.86,   0.58,   0.41,   0.18,  -0.25,   0.07,   0.26,  -0.11,  -0.33,   4.03, 0.00, 0.00, 0.00, 0.00, 0.00, 1, 1,  9,  38.3980216, -78.0648347,   130.0, 2024,  2, 10, 18, 24, 47,        0,        0,   0,   0,   1.4,   0.8,   1.1,  0, 33,  0,  0,  0,  0, 23, 21, 30,  0,  0,  0, 26, 25,  0, 17, 22,  0,  0,  0, 32, 24,  0,  0,  0,  0, 27,  0,  0, 24,  0,  0
6, 10923, 4,N0AHK,    -0.18, 3,   boost,    2.01,  99754.00,  131.60,   -0.51,    0.04, 22.8, 0.00, 0.00, 3.72,   9.86,   0.58,   0.40,   0.30,  -0.07,   0.25,   0.26,  -0.11,  -0.33,   4.03, 0.00, 0.00, 0.00, 0.00, 0.00, 1, 1,  9,  38.3980216, -78.0648347,   130.0, 2024,  2, 10, 18, 24, 47,        0,        0,   0,   0,   1.4,   0.8,   1.1,  0, 33,  0,  0,  0,  0, 23, 21, 30,  0,  0,  0, 26, 25,  0, 17, 22,  0,  0,  0, 32, 24,  0,  0,  0,  0, 27,  0,  0, 24,  0,  0
6, 10923, 4,N0AHK,    -0.17, 3,   boost,   -0.50,  99754.00,  131.60,   -0.51,    0.04, 22.8, 0.00, 0.00, 3.72,   9.84,   0.58,   0.40,  -0.13,   0.18,  -0.11,   0.26,  -0.11,  -0.33,   4.03, 0.00, 0.00, 0.00, 0.00, 0.00, 1, 1,  9,  38.3980216, -78.0648347,   130.0, 2024,  2, 10, 18, 24, 47,        0,        0,   0,   0,   1.4,   0.8,   1.1,  0, 33,  0,  0,  0,  0, 23, 21, 30,  0,  0,  0, 26, 25,  0, 17, 22,  0,  0,  0, 32, 24,  0,  0,  0,  0, 27,  0,  0, 24,  0,  0
6, 10923, 4,N0AHK,    -0.16, 3,   boost,   -2.01,  99744.00,  132.45,    0.34,    0.03, 22.8, 0.00, 0.00, 3.72,   9.85,   0.56,   0.37,  -0.01,  -0.31,  -0.24,   0.26,  -0.11,  -0.33,   4.03, 0.00, 0.00, 0.00, 0.00, 0.00, 1, 1,  9,  38.3980216, -78.0648347,   130.0, 2024,  2, 10, 18, 24, 47,        0,        0,   0,   0,   1.4,   0.8,   1.1,  0, 33,  0,  0,  0,  0, 23, 21, 30,  0,  0,  0, 26, 25,  0, 17, 22,  0,  0,  0, 32, 24,  0,  0,  0,  0, 27,  0,  0, 24,  0,  0
6, 10923, 4,N0AHK,    -0.15, 3,   boost,   -0.00,  99744.00,  132.45,    0.34,    0.03, 22.8, 0.00, 0.00, 3.72,   9.86,   0.56,   0.42,   0.12,   0.06,  -0.05,   0.26,  -0.11,  -0.33,   4.03, 0.00, 0.00, 0.00, 0.00, 0.00, 1, 1,  9,  38.3980216, -78.0648347,   130.0, 2024,  2, 10, 18, 24, 47,        0,        0,   0,   0,   1.4,   0.8,   1.1,  0, 33,  0,  0,  0,  0, 23, 21, 30,  0,  0,  0, 26, 25,  0, 17, 22,  0,  0,  0, 32, 24,  0,  0,  0,  0, 27,  0,  0, 24,  0,  0
6, 10923, 4,N0AHK,    -0.14, 3,   boost,   -0.50,  99747.00,  132.19,    0.08,    0.02, 22.8, 0.00, 0.00, 3.72,   9.84,   0.55,   0.42,  -0.01,   0.12,   0.19,   0.26,  -0.11,  -0.33,   4.03, 0.00, 0.00, 0.00, 0.00, 0.00, 1, 1,  9,  38.3980216, -78.0648347,   130.0, 2024,  2, 10, 18, 24, 47,        0,        0,   0,   0,   1.4,   0.8,   1.1,  0, 33,  0,  0,  0,  0, 23, 21, 30,  0,  0,  0, 26, 25,  0, 17, 22,  0,  0,  0, 32, 24,  0,  0,  0,  0, 27,  0,  0, 24,  0,  0
6, 10923, 4,N0AHK,    -0.13, 3,   boost,   -0.50,  99747.00,  132.19,    0.08,    0.02, 22.8, 0.00, 0.00, 3.72,   9.84,   0.57,   0.45,  -0.01,  -0.01,   0.07,   0.26,  -0.11,  -0.33,   4.03, 0.00, 0.00, 0.00, 0.00, 0.00, 1, 1,  9,  38.3980216, -78.0648347,   130.0, 2024,  2, 10, 18, 24, 47,        0,        0,   0,   0,   1.4,   0.8,   1.1,  0, 33,  0,  0,  0,  0, 23, 21, 30,  0,  0,  0, 26, 25,  0, 17, 22,  0,  0,  0, 32, 24,  0,  0,  0,  0, 27,  0,  0, 24,  0,  0
6, 10923, 4,N0AHK,    -0.12, 3,   boost,    0.50,  99748.00,  132.11,    0.00,    0.01, 22.8, 0.00, 0.00, 3.72,   9.86,   0.56,   0.38,   0.24,  -0.07,   0.07,   0.26,  -0.11,  -0.33,   4.03, 0.00, 0.00, 0.00, 0.00, 0.00, 1, 1,  9,  38.3980216, -78.0648347,   130.0, 2024,  2, 10, 18, 24, 47,        0,        0,   0,   0,   1.4,   0.8,   1.1,  0, 33,  0,  0,  0,  0, 23, 21, 30,  0,  0,  0, 26, 25,  0, 17, 22,  0,  0,  0, 32, 24,  0,  0,  0,  0, 27,  0,  0, 24,  0,  0
6, 10923, 4,N0AHK,    -0.11, 3,   boost,   -2.01,  99748.00,  132.11,    0.00,    0.01, 22.8, 0.00, 0.00, 3.72,   9.86,   0.56,   0.40,  -0.13,  -0.07,  -0.05,   0.27,  -0.11,  -0.33,   4.03, 0.00, 0.00, 0.00, 0.00, 0.00, 1, 1,  9,  38.3980216, -78.0648347,   130.0, 2024,  2, 10, 18, 24, 47,        0,        0,   0,   0,   1.4,   0.8,   1.1,  0, 33,  0,  0,  0,  0, 23, 21, 30,  0,  0,  0, 26, 25,  0, 17, 22,  0,  0,  0, 32, 24,  0,  0,  0,  0, 27,  0,  0, 24,  0,  0
6, 10923, 4,N0AHK,    -0.10, 3,   boost,   -0.00,  99753.00,  131.69,   -0.42,    0.01, 22.8, 0.00, 0.00, 3.72,   9.87,   0.61,   0.37,   0.05,   0.24,  -0.24,   0.27,  -0.11,  -0.33,   4.03, 0.00, 0.00, 0.00, 0.00, 0.00, 1, 1,  9,  38.3980216, -78.0648347,   130.0, 2024,  2, 10, 18, 24, 47,        0,        0,   0,   0,   1.4,   0.8,   1.1,  0, 33,  0,  0,  0,  0, 23, 21, 30,  0,  0,  0, 26, 25,  0, 17, 22,  0,  0,  0, 32, 24,  0,  0,  0,  0, 27,  0,  0, 24,  0,  0
6, 10923, 4,N0AHK,    -0.09, 3,   boost,   -0.00,  99753.00,  131.69,   -0.42,    0.02, 22.8, 0.00, 0.00, 3.72,   9.86,   0.60,   0.44,  -0.13,   0.24,   0.01,   0.26,  -0.11,  -0.33,   4.03, 0.00, 0.00, 0.00, 0.00, 0.00, 1, 1,  9,  38.3980216, -78.0648347,   130.0, 2024,  2, 10, 18, 24, 47,        0,        0,   0,   0,   1.4,   0.8,   1.1,  0, 33,  0,  0,  0,  0, 23, 21, 30,  0,  0,  0, 26, 25,  0, 17, 22,  0,  0,  0, 32, 24,  0,  0,  0,  0, 27,  0,  0, 24,  0,  0
6, 10923, 4,N0AHK,    -0.08, 3,   boost,    1.01,  99744.00,  132.45,    0.34,    0.06, 22.8, 0.00, 0.00, 3.72,   9.88,   0.53,   0.41,   0.18,  -0.01,  -0.11,   0.27,  -0.11,  -0.33,   4.03, 0.00, 0.00, 0.00, 0.00, 0.00, 1, 1,  9,  38.3980216, -78.0648347,   130.0, 2024,  2, 10, 18, 24, 47,        0,        0,   0,   0,   1.4,   0.8,   1.1,  0, 33,  0,  0,  0,  0, 23, 21, 30,  0,  0,  0, 26, 25,  0, 17, 22,  0,  0,  0, 32, 24,  0,  0,  0,  0, 27,  0,  0, 24,  0,  0
6, 10923, 4,N0AHK,    -0.07, 3,   boost,    1.01,  99744.00,  132.45,    0.34,    0.17, 22.8, 0.00, 0.00, 3.72,   9.86,   0.55,   0.43,  -0.13,   0.06,   0.07,   0.26,  -0.11,  -0.33,   4.03, 0.00, 0.00, 0.00, 0.00, 0.00, 1, 1,  9,  38.3980216, -78.0648347,   130.0, 2024,  2, 10, 18, 24, 47,        0,        0,   0,   0,   1.4,   0.8,   1.1,  0, 33,  0,  0,  0,  0, 23, 21, 30,  0,  0,  0, 26, 25,  0, 17, 22,  0,  0,  0, 32, 24,  0,  0,  0,  0, 27,  0,  0, 24,  0,  0
6, 10923, 4,N0AHK,    -0.06, 3,   boost,    8.05,  99749.00,  132.02,   -0.08,    0.40, 22.8, 0.00, 0.00, 3.72,   9.88,   0.55,   0.45,   0.05,  -0.25,   0.01,   0.26,  -0.11,  -0.33,   4.03, 0.00, 0.00, 0.00, 0.00, 0.00, 1, 1,  9,  38.3980216, -78.0648347,   130.0, 2024,  2, 10, 18, 24, 47,        0,        0,   0,   0,   1.4,   0.8,   1.1,  0, 33,  0,  0,  0,  0, 23, 21, 30,  0,  0,  0, 26, 25,  0, 17, 22,  0,  0,  0, 32, 24,  0,  0,  0,  0, 27,  0,  0, 24,  0,  0
6, 10923, 4,N0AHK,    -0.05, 3,   boost,   57.33,  99749.00,  132.02,   -0.08,    0.79, 22.8, 0.00, 0.00, 3.72,   9.89,   0.30,   0.51,   1.58,   0.67,   0.25,   0.26,  -0.11,  -0.33,   4.03, 0.00, 0.00, 0.00, 0.00, 0.00, 1, 1,  9,  38.3980216, -78.0648347,   130.0, 2024,  2, 10, 18, 24, 47,        0,        0,   0,   0,   1.4,   0.8,   1.1,  0, 33,  0,  0,  0,  0, 23, 21, 30,  0,  0,  0, 26, 25,  0, 17, 22,  0,  0,  0, 32, 24,  0,  0,  0,  0, 27,  0,  0, 24,  0,  0
6, 10923, 4,N0AHK,    -0.04, 3,   boost,   81.47,  99779.00,  129.49,   -2.61,    1.33, 22.8, 0.00, 0.00, 3.72,  48.72,   0.68,   2.07, -16.30,  -3.30,   5.56,   0.26,  -0.11,  -0.33,   4.03, 0.00, 0.00, 0.00, 0.00, 0.00, 1, 1,  9,  38.3980216, -78.0648347,   130.0, 2024,  2, 10, 18, 24, 47,        0,        0,   0,   0,   1.4,   0.8,   1.1,  0, 33,  0,  0,  0,  0, 23, 21, 30,  0,  0,  0, 26, 25,  0, 17, 22,  0,  0,  0, 32, 24,  0,  0,  0,  0, 27,  0,  0, 24,  0,  0
6, 10923, 4,N0AHK,    -0.03, 3,   boost,   86.50,  99779.00,  129.49,   -2.61,    2.02, 22.8, 0.00, 0.00, 3.72,  88.74,   0.60,   4.75, -16.73,   0.60,   0.86,   0.26,  -0.11,  -0.33,   4.03, 0.00, 0.00, 0.00, 0.00, 0.00, 1, 1,  9,  38.3980216, -78.0648347,   130.0, 2024,  2, 10, 18, 24, 47,        0,        0,   0,   0,   1.4,   0.8,   1.1,  0, 33,  0,  0,  0,  0, 23, 21, 30,  0,  0,  0, 26, 25,  0, 17, 22,  0,  0,  0, 32, 24,  0,  0,  0,  0, 27,  0,  0, 24,  0,  0
6, 10923, 4,N0AHK,    -0.02, 3,   boost,   86.50,  99742.00,  132.61,    0.51,    2.80, 22.8, 0.00, 0.00, 3.72,  93.63,   4.15,   3.08, -21.74,   2.56,   0.07,   0.26,  -0.11,  -0.33,   4.03, 0.00, 0.00, 0.00, 0.00, 0.00, 1, 1,  9,  38.3980216, -78.0648347,   130.0, 2024,  2, 10, 18, 24, 47,        0,        0,   0,   0,   1.4,   0.8,   1.1,  0, 33,  0,  0,  0,  0, 23, 21, 30,  0,  0,  0, 26, 25,  0, 17, 22,  0,  0,  0, 32, 24,  0,  0,  0,  0, 27,  0,  0, 24,  0,  0
6, 10923, 4,N0AHK,    -0.01, 3,   boost,   86.00,  99742.00,  132.61,    0.51,    3.63, 22.8, 0.00, 0.00, 3.72,  93.68,   0.24,   1.51, -26.98,   0.91,  -2.13,   0.26,  -0.11,  -0.33,   4.03, 0.00, 0.00, 0.00, 0.00, 0.00, 1, 1,  9,  38.3980216, -78.0648347,   130.0, 2024,  2, 10, 18, 24, 47,        0,        0,   0,   0,   1.4,   0.8,   1.1,  0, 33,  0,  0,  0,  0, 23, 21, 30,  0,  0,  0, 26, 25,  0, 17, 22,  0,  0,  0, 32, 24,  0,  0,  0,  0, 27,  0,  0, 24,  0,  0
6, 10923, 4,N0AHK,     0.00, 3,   boost,   84.49,  99731.00,  133.54,    1.43,    4.49, 22.8, 0.00, 0.00, 3.72,  92.81,   1.62,   0.49, -12.95,  -0.62,  -1.03,   0.26,  -0.11,  -0.33,   4.03, 0.00, 0.00, 0.00, 0.00, 0.00, 1, 1,  9,  38.3980216, -78.0648347,   130.0, 2024,  2, 10, 18, 24, 47,        0,        0,   0,   0,   1.4,   0.8,   1.1,  0, 33,  0,  0,  0,  0, 23, 21, 30,  0,  0,  0, 26, 25,  0, 17, 22,  0,  0,  0, 32, 24,  0,  0,  0,  0, 27,  0,  0, 24,  0,  0
6, 10923, 4,N0AHK,     0.00, 3,   boost,   84.49,  99731.00,  133.54,    1.43,    4.49, 22.8, 0.00, 0.00, 3.72,  92.81,   1.62,   0.49, -12.95,  -0.62,  -1.03,   0.26,  -0.11,  -0.33,   4.03, 0.00, 0.00, 0.00, 0.00, 0.00, 1, 1,  9,  38.3980216, -78.0648347,   130.0, 2024,  2, 10, 18, 24, 47,        0,        0,   0,   0,   1.4,   0.8,   1.1,  0, 33,  0,  0,  0,  0, 23, 21, 30,  0,  0,  0, 26, 25,  0, 17, 22,  0,  0,  0, 32, 24,  0,  0,  0,  0, 27,  0,  0, 24,  0,  0
6, 10923, 4,N0AHK,     0.00, 3,   boost,   84.49,  99731.00,  133.54,    1.43,    4.49, 22.8, 0.00, 0.00, 3.72,  92.81,   1.62,   0.49, -12.95,  -0.62,  -1.03,   0.26,  -0.11,  -0.33,   4.03, 0.00, 0.00, 0.00, 0.00, 0.00, 1, 1,  9,  38.3980216, -78.0648347,   130.0, 2024,  2, 10, 18, 24, 47,        0,        0,   0,   0,   1.4,   0.8,   1.1,  0, 33,  0,  0,  0,  0, 23, 21, 30,  0,  0,  0, 26, 25,  0, 17, 22,  0,  0,  0, 32, 24,  0,  0,  0,  0, 27,  0,  0, 24,  0,  0
6, 10923, 4,N0AHK,     0.00, 3,   boost,   84.49,  99731.00,  133.54,    1.43,    4.49, 22.8, 0.00, 0.00, 3.72,  92.81,   1.62,   0.49, -12.95,  -0.62,  -1.03,   0.26,  -0.11,  -0.33,   4.03, 0.00, 0.00, 0.00, 0.00, 0.00, 1, 1,  9,  38.3980216, -78.0648347,   130.0, 2024,  2, 10, 18, 24, 47,        0,        0,   0,   0,   1.4,   0.8,   1.1,  0, 33,  0,  0,  0,  0, 23, 21, 30,  0,  0,  0, 26, 25,  0, 17, 22,  0,  0,  0, 32, 24,  0,  0,  0,  0, 27,  0,  0, 24,  0,  0
6, 10923, 4,N0AHK,     0.00, 3,   boost,   84.49,  99731.00,  133.54,    1.43,    4.49, 22.8, 0.00, 0.00, 3.72,  92.81,   1.62,   0.49, -12.95,  -0.62,  -1.03,   0.26,  -0.11,  -0.33,   4.03, 0.00, 0.00, 0.00, 0.00, 0.00, 1, 1,  9,  38.3980216, -78.0648347,   130.0, 2024,  2, 10, 18, 24, 47,        0,        0,   0,   0,   1.4,   0.8,   1.1,  0, 33,  0,  0,  0,  0, 23, 21, 30,  0,  0,  0, 26, 25,  0, 17, 22,  0,  0,  0, 32, 24,  0,  0,  0,  0, 27,  0,  0, 24,  0,  0
6, 10923, 4,N0AHK,     0.00, 3,   boost,   84.49,  99731.00,  133.54,    1.43,    4.49, 22.8, 0.00, 0.00, 3.72,  92.81,   1.62,   0.49, -12.95,  -0.62,  -1.03,   0.26,  -0.11,  -0.33,   4.03, 0.00, 0.00, 0.00, 0.00, 0.00, 1, 1,  9,  38.3980216, -78.0648347,   130.0, 2024,  2, 10, 18, 24, 47,        0,        0,   0,   0,   1.4,   0.8,   1.1,  0, 33,  0,  0,  0,  0, 23, 21, 30,  0,  0,  0, 26, 25,  0, 17, 22,  0,  0,  0, 32, 24,  0,  0,  0,  0, 27,  0,  0, 24,  0,  0
6, 10923, 4,N0AHK,     0.00, 3,   boost,   84.49,  99731.00,  133.54,    1.43,    4.49, 22.8, 0.00, 0.00, 3.72,  92.81,   1.62,   0.49, -12.95,  -0.62,  -1.03,   0.26,  -0.11,  -0.33,   4.03, 0.00, 0.00, 0.00, 0.00, 0.00, 1, 1,  9,  38.3980216, -78.0648347,   130.0, 2024,  2, 10, 18, 24, 47,        0,        0,   0,   0,   1.4,   0.8,   1.1,  0, 33,  0,  0,  0,  0, 23, 21, 30,  0,  0,  0, 26, 25,  0, 17, 22,  0,  0,  0, 32, 24,  0,  0,  0,  0, 27,  0,  0, 24,  0,  0
6, 10923, 4,N0AHK,     0.00, 3,   boost,   84.49,  99731.00,  133.54,    1.43,    4.49, 22.8, 0.00, 0.00, 3.72,  92.81,   1.62,   0.49, -12.95,  -0.62,  -1.03,   0.26,  -0.11,  -0.33,   4.03, 0.00, 0.00, 0.00, 0.00, 0.00, 1, 1,  9,  38.3980216, -78.0648347,   130.0, 2024,  2, 10, 18, 24, 47,        0,        0,   0,   0,   1.4,   0.8,   1.1,  0, 33,  0,  0,  0,  0, 23, 21, 30,  0,  0,  0, 26, 25,  0, 17, 22,  0,  0,  0, 32, 24,  0,  0,  0,  0, 27,  0,  0, 24,  0,  0
6, 10923, 4,N0AHK,     0.00, 3,   boost,   84.49,  99731.00,  133.54,    1.43,    4.49, 22.8, 0.00, 0.00, 3.72,  92.81,   1.62,   0.49, -12.95,  -0.62,  -1.03,   0.26,  -0.11,  -0.33,   4.03, 0.00, 0.00, 0.00, 0.00, 0.00, 1, 1,  9,  38.3980216, -78.0648347,   130.0, 2024,  2, 10, 18, 24, 47,        0,        0,   0,   0,   1.4,   0.8,   1.1,  0, 33,  0,  0,  0,  0, 23, 21, 30,  0,  0,  0, 26, 25,  0, 17, 22,  0,  0,  0, 32, 24,  0,  0,  0,  0, 27,  0,  0, 24,  0,  0
6, 10923, 4,N0AHK,     0.00, 3,   boost,   84.49,  99731.00,  133.54,    1.43,    4.49, 22.8, 0.00, 0.00, 3.72,  92.81,   1.62,   0.49, -12.95,  -0.62,  -1.03,   0.26,  -0.11,  -0.33,   4.03, 0.00, 0.00, 0.00, 0.00, 0.00, 1, 1,  9,  38.3980216, -78.0648347,   130.0, 2024,  2, 10, 18, 24, 47,        0,        0,   0,   0,   1.4,   0.8,   1.1,  0, 33,  0,  0,  0,  0, 23, 21, 30,  0,  0,  0, 26, 25,  0, 17, 22,  0,  0,  0, 32, 24,  0,  0,  0,  0, 27,  0,  0, 24,  0,  0
6, 10923, 4,N0AHK,     0.00, 3,   boost,   84.49,  99731.00,  133.54,    1.43,    4.49, 22.8, 0.00, 0.00, 3.72,  92.81,   1.62,   0.49, -12.95,  -0.62,  -1.03,   0.26,  -0.11,  -0.33,   4.03, 0.00, 0.00, 0.00, 0.00, 0.00, 1, 1,  9,  38.3980216, -78.0648347,   130.0, 2024,  2, 10, 18, 24, 47,        0,        0,   0,   0,   1.4,   0.8,   1.1,  0, 33,  0,  0,  0,  0, 23, 21, 30,  0,  0,  0, 26, 25,  0, 17, 22,  0,  0,  0, 32, 24,  0,  0,  0,  0, 27,  0,  0, 24,  0,  0
6, 10923, 4,N0AHK,     0.00, 3,   boost,   84.49,  99731.00,  133.54,    1.43,    4.49, 22.8, 0.00, 0.00, 3.72,  92.81,   1.62,   0.49, -12.95,  -0.62,  -1.03,   0.26,  -0.11,  -0.33,   4.03, 0.00, 0.00, 0.00, 0.00, 0.00, 1, 1,  9,  38.3980216, -78.0648347,   130.0, 2024,  2, 10, 18, 24, 47,        0,        0,   0,   0,   1.4,   0.8,   1.1,  0, 33,  0,  0,  0,  0, 23, 21, 30,  0,  0,  0, 26, 25,  0, 17, 22,  0,  0,  0, 32, 24,  0,  0,  0,  0, 27,  0,  0, 24,  0,  0
6, 10923, 4,N0AHK,     0.00, 3,   boost,   84.49,  99731.00,  133.54,    1.43,    4.49, 22.8, 0.00, 0.00, 3.72,  92.81,   1.62,   0.49, -12.95,  -0.62,  -1.03,   0.26,  -0.11,  -0.33,   4.03, 0.00, 0.00, 0.00, 0.00, 0.00, 1, 1,  9,  38.3980216, -78.0648347,   130.0, 2024,  2, 10, 18, 24, 47,        0,        0,   0,   0,   1.4,   0.8,   1.1,  0, 33,  0,  0,  0,  0, 23, 21, 30,  0,  0,  0, 26, 25,  0, 17, 22,  0,  0,  0, 32, 24,  0,  0,  0,  0, 27,  0,  0, 24,  0,  0
6, 10923, 4,N0AHK,     0.00, 3,   boost,   84.49,  99731.00,  133.54,    1.43,    4.49, 22.8, 0.00, 0.00, 3.72,  92.81,   1.62,   0.49, -12.95,  -0.62,  -1.03,   0.26,  -0.11,  -0.33,   4.03, 0.00, 0.00, 0.00, 0.00, 0.00, 1, 1,  9,  38.3980216, -78.0648347,   130.0, 2024,  2, 10, 18, 24, 47,        0,        0,   0,   0,   1.4,   0.8,   1.1,  0, 33,  0,  0,  0,  0, 23, 21, 30,  0,  0,  0, 26, 25,  0, 17, 22,  0,  0,  0, 32, 24,  0,  0,  0,  0, 27,  0,  0, 24,  0,  0
6, 10923, 4,N0AHK,     0.00, 3,   boost,   84.49,  99731.00,  133.54,    1.43,    4.49, 22.8, 0.00, 0.00, 3.72,  92.81,   1.62,   0.49, -12.95,  -0.62,  -1.03,   0.26,  -0.11,  -0.33,   4.03, 0.00, 0.00, 0.00, 0.00, 0.00, 1, 1,  9,  38.3980216, -78.0648347,   130.0, 2024,  2, 10, 18, 24, 47,        0,        0,   0,   0,   1.4,   0.8,   1.1,  0, 33,  0,  0,  0,  0, 23, 21, 30,  0,  0,  0, 26, 25,  0, 17, 22,  0,  0,  0, 32, 24,  0,  0,  0,  0, 27,  0,  0, 24,  0,  0
6, 10923, 4,N0AHK,     0.00, 3,   boost,   84.49,  99731.00,  133.54,    1.43,    4.49, 22.8, 0.00, 0.00, 3.72,  92.81,   1.62,   0.49, -12.95,  -0.62,  -1.03,   0.26,  -0.11,  -0.33,   4.03, 0.00, 0.00, 0.00, 0.00, 0.00, 1, 1,  9,  38.3980216, -78.0648347,   130.0, 2024,  2, 10, 18, 24, 47,        0,        0,   0,   0,   1.4,   0.8,   1.1,  0, 33,  0,  0,  0,  0, 23, 21, 30,  0,  0,  0, 26, 25,  0, 17, 22,  0,  0,  0, 32, 24,  0,  0,  0,  0, 27,  0,  0, 24,  0,  0
6, 10923, 4,N0AHK,     0.00, 3,   boost,   84.49,  99731.00,  133.54,    1.43,    4.49, 22.8, 0.00, 0.00, 3.72,  92.81,   1.62,   0.49, -12.95,  -0.62,  -1.03,   0.26,  -0.11,  -0.33,   4.03, 0.00, 0.00, 0.00, 0.00, 0.00, 1, 1,  9,  38.3980216, -78.0648347,   130.0, 2024,  2, 10, 18, 24, 47,        0,        0,   0,   0,   1.4,   0.8,   1.1,  0, 33,  0,  0,  0,  0, 23, 21, 30,  0,  0,  0, 26, 25,  0, 17, 22,  0,  0,  0, 32, 24,  0,  0,  0,  0, 27,  0,  0, 24,  0,  0
6, 10923, 4,N0AHK,     0.00, 3,   boost,   84.49,  99731.00,  133.54,    1.43,    4.49, 22.8, 0.00, 0.00, 3.72,  92.81,   1.62,   0.49, -12.95,  -0.62,  -1.03,   0.26,  -0.11,  -0.33,   4.03, 0.00, 0.00, 0.00, 0.00, 0.00, 1, 1,  9,  38.3980216, -78.0648347,   130.0, 2024,  2, 10, 18, 24, 47,        0,        0,   0,   0,   1.4,   0.8,   1.1,  0, 33,  0,  0,  0,  0, 23, 21, 30,  0,  0,  0, 26, 25,  0, 17, 22,  0,  0,  0, 32, 24,  0,  0,  0,  0, 27,  0,  0, 24,  0,  0
6, 10923, 4,N0AHK,     0.00, 3,   boost,   84.49,  99731.00,  133.54,    1.43,    4.49, 22.8, 0.00, 0.00, 3.72,  92.81,   1.62,   0.49, -12.95,  -0.62,  -1.03,   0.26,  -0.11,  -0.33,   4.03, 0.00, 0.00, 0.00, 0.00, 0.00, 1, 1,  9,  38.3980216, -78.0648347,   130.0, 2024,  2, 10, 18, 24, 47,        0,        0,   0,   0,   1.4,   0.8,   1.1,  0, 33,  0,  0,  0,  0, 23, 21, 30,  0,  0,  0, 26, 25,  0, 17, 22,  0,  0,  0, 32, 24,  0,  0,  0,  0, 27,  0,  0, 24,  0,  0
6, 10923, 4,N0AHK,     0.00, 3,   boost,   84.49,  99731.00,  133.54,    1.43,    4.49, 22.8, 0.00, 0.00, 3.72,  92.81,   1.62,   0.49, -12.95,  -0.62,  -1.03,   0.26,  -0.11,  -0.33,   4.03, 0.00, 0.00, 0.00, 0.00, 0.00, 1, 1,  9,  38.3980216, -78.0648347,   130.0, 2024,  2, 10, 18, 24, 47,        0,        0,   0,   0,   1.4,   0.8,   1.1,  0, 33,  0,  0,  0,  0, 23, 21, 30,  0,  0,  0, 26, 25,  0, 17, 22,  0,  0,  0, 32, 24,  0,  0,  0,  0, 27,  0,  0, 24,  0,  0
6, 10923, 4,N0AHK,     0.00, 3,   boost,   84.49,  99731.00,  133.54,    1.43,    4.49, 22.8, 0.00, 0.00, 3.72,  92.81,   1.62,   0.49, -12.95,  -0.62,  -1.03,   0.26,  -0.11,  -0.33,   4.03, 0.00, 0.00, 0.00, 0.00, 0.00, 1, 1,  9,  38.3980216, -78.0648347,   130.0, 2024,  2, 10, 18, 24, 47,        0,        0,   0,   0,   1.4,   0.8,   1.1,  0, 33,  0,  0,  0,  0, 23, 21, 30,  0,  0,  0, 26, 25,  0, 17, 22,  0,  0,  0, 32, 24,  0,  0,  0,  0, 27,  0,  0, 24,  0,  0
6, 10923, 4,N0AHK,     0.00, 3,   boost,   84.49,  99731.00,  133.54,    1.43,    4.49, 22.8, 0.00, 0.00, 3.72,  92.81,   1.62,   0.49, -12.95,  -0.62,  -1.03,   0.26,  -0.11,  -0.33,   4.03, 0.00, 0.00, 0.00, 0.00, 0.00, 1, 1,  9,  38.3980216, -78.0648347,   130.0, 2024,  2, 10, 18, 24, 47,        0,        0,   0,   0,   1.4,   0.8,   1.1,  0, 33,  0,  0,  0,  0, 23, 21, 30,  0,  0,  0, 26, 25,  0, 17, 22,  0,  0,  0, 32, 24,  0,  0,  0,  0, 27,  0,  0, 24,  0,  0
6, 10923, 4,N0AHK,     0.00, 3,   boost,   84.49,  99731.00,  133.54,    1.43,    4.49, 22.8, 0.00, 0.00, 3.72,  92.81,   1.62,   0.49, -12.95,  -0.62,  -1.03,   0.26,  -0.11,  -0.33,   4.03, 0.00, 0.00, 0.00, 0.00, 0.00, 1, 1,  9,  38.3980216, -78.0648347,   130.0, 2024,  2, 10, 18, 24, 47,        0,        0,   0,   0,   1.4,   0.8,   1.1,  0, 33,  0,  0,  0,  0, 23, 21, 30,  0,  0,  0, 26, 25,  0, 17, 22,  0,  0,  0, 32, 24,  0,  0,  0,  0, 27,  0,  0, 24,  0,  0
6, 10923, 4,N0AHK,     0.00, 3,   boost,   84.49,  99731.00,  133.54,    1.43,    4.49, 22.8, 0.00, 0.00, 3.72,  92.81,   1.62,   0.49, -12.95,  -0.62,  -1.03,   0.26,  -0.11,  -0.33,   4.03, 0.00, 0.00, 0.00, 0.00, 0.00, 1, 1,  9,  38.3980216, -78.0648347,   130.0, 2024,  2, 10, 18, 24, 47,        0,        0,   0,   0,   1.4,   0.8,   1.1,  0, 33,  0,  0,  0,  0, 23, 21, 30,  0,  0,  0, 26, 25,  0, 17, 22,  0,  0,  0, 32, 24,  0,  0,  0,  0, 27,  0,  0, 24,  0,  0
6, 10923, 4,N0AHK,     0.00, 3,   boost,   84.49,  99731.00,  133.54,    1.43,    4.49, 22.8, 0.00, 0.00, 3.72,  92.81,   1.62,   0.49, -12.95,  -0.62,  -1.03,   0.26,  -0.11,  -0.33,   4.03, 0.00, 0.00, 0.00, 0.00, 0.00, 1, 1,  9,  38.3980216, -78.0648347,   130.0, 2024,  2, 10, 18, 24, 47,        0,        0,   0,   0,   1.4,   0.8,   1.1,  0, 33,  0,  0,  0,  0, 23, 21, 30,  0,  0,  0, 26, 25,  0, 17, 22,  0,  0,  0, 32, 24,  0,  0,  0,  0, 27,  0,  0, 24,  0,  0
6, 10923, 4,N0AHK,     0.00, 3,   boost,   84.49,  99731.00,  133.54,    1.43,    4.49, 22.8, 0.00, 0.00, 3.72,  92.81,   1.62,   0.49, -12.95,  -0.62,  -1.03,   0.26,  -0.11,  -0.33,   4.03, 0.00, 0.00, 0.00, 0.00, 0.00, 1, 1,  9,  38.3980216, -78.0648347,   130.0, 2024,  2, 10, 18, 24, 47,        0,        0,   0,   0,   1.4,   0.8,   1.1,  0, 33,  0,  0,  0,  0, 23, 21, 30,  0,  0,  0, 26, 25,  0, 17, 22,  0,  0,  0, 32, 24,  0,  0,  0,  0, 27,  0,  0, 24,  0,  0
6, 10923, 4,N0AHK,     0.00, 3,   boost,   84.49,  99731.00,  133.54,    1.43,    4.49, 22.8, 0.00, 0.00, 3.72,  92.81,   1.62,   0.49, -12.95,  -0.62,  -1.03,   0.26,  -0.11,  -0.33,   4.03, 0.00, 0.00, 0.00, 0.00, 0.00, 1, 1,  9,  38.3980216, -78.0648347,   130.0, 2024,  2, 10, 18, 24, 47,        0,        0,   0,   0,   1.4,   0.8,   1.1,  0, 33,  0,  0,  0,  0, 23, 21, 30,  0,  0,  0, 26, 25,  0, 17, 22,  0,  0,  0, 32, 24,  0,  0,  0,  0, 27,  0,  0, 24,  0,  0
6, 10923, 4,N0AHK,     0.00, 3,   boost,   84.49,  99731.00,  133.54,    1.43,    4.49, 22.8, 0.00, 0.00, 3.72,  92.81,   1.62,   0.49, -12.95,  -0.62,  -1.03,   0.26,  -0.11,  -0.33,   4.03, 0.00, 0.00, 0.00, 0.00, 0.00, 1, 1,  9,  38.3980216, -78.0648347,   130.0, 2024,  2, 10, 18, 24, 47,        0,        0,   0,   0,   1.4,   0.8,   1.1,  0, 33,  0,  0,  0,  0, 23, 21, 30,  0,  0,  0, 26, 25,  0, 17, 22,  0,  0,  0, 32, 24,  0,  0,  0,  0, 27,  0,  0, 24,  0,  0
6, 10923, 4,N0AHK,     0.00, 3,   boost,   84.49,  99731.00,  133.54,    1.43,    4.49, 22.8, 0.00, 0.00, 3.72,  92.81,   1.62,   0.49, -12.95,  -0.62,  -1.03,   0.26,  -0.11,  -0.33,   4.03, 0.00, 0.00, 0.00, 0.00, 0.00, 1, 1,  9,  38.3980216, -78.0648347,   130.0, 2024,  2, 10, 18, 24, 47,        0,        0,   0,   0,   1.4,   0.8,   1.1,  0, 33,  0,  0,  0,  0, 23, 21, 30,  0,  0,  0, 26, 25,  0, 17, 22,  0,  0,  0, 32, 24,  0,  0,  0,  0, 27,  0,  0, 24,  0,  0
6, 10923, 4,N0AHK,     0.00, 3,   boost,   84.49,  99731.00,  133.54,    1.43,    4.49, 22.8, 0.00, 0.00, 3.72,  92.81,   1.62,   0.49, -12.95,  -0.62,  -1.03,   0.26,  -0.11,  -0.33,   4.03, 0.00, 0.00, 0.00, 0.00, 0.00, 1, 1,  9,  38.3980216, -78.0648347,   130.0, 2024,  2, 10, 18, 24, 47,        0,        0,   0,   0,   1.4,   0.8,   1.1,  0, 33,  0,  0,  0,  0, 23, 21, 30,  0,  0,  0, 26, 25,  0, 17, 22,  0,  0,  0, 32, 24,  0,  0,  0,  0, 27,  0,  0, 24,  0,  0
6, 10923, 4,N0AHK,     0.00, 3,   boost,   84.49,  99731.00,  133.54,    1.43,    4.49, 22.8, 0.00, 0.00, 3.72,  92.81,   1.62,   0.49, -12.95,  -0.62,  -1.03,   0.26,  -0.11,  -0.33,   4.09, 0.00, 0.00, 0.00, 0.00, 0.00, 1, 1,  9,  38.3980216, -78.0648347,   130.0, 2024,  2, 10, 18, 24, 47,        0,        0,   0,   0,   1.4,   0.8,   1.1,  0, 33,  0,  0,  0,  0, 23, 21, 30,  0,  0,  0, 26, 25,  0, 17, 22,  0,  0,  0, 32, 24,  0,  0,  0,  0, 27,  0,  0, 24,  0,  0
6, 10923, 4,N0AHK,     0.00, 3,   boost,   84.49,  99731.00,  133.54,    1.43,    4.49, 22.8, 0.00, 0.00, 3.72,  92.81,   1.62,   0.49, -12.95,  -0.62,  -1.03,   0.26,  -0.11,  -0.33,   4.09, 0.00, 0.00, 0.00, 0.00, 0.00, 1, 1,  9,  38.3980216, -78.0648347,   130.0, 2024,  2, 10, 18, 24, 47,        0,        0,   0,   0,   1.4,   0.8,   1.1,  0, 33,  0,  0,  0,  0, 23, 21, 30,  0,  0,  0, 26, 25,  0, 17, 22,  0,  0,  0, 32, 24,  0,  0,  0,  0, 27,  0,  0, 24,  0,  0
6, 10923, 4,N0AHK,     0.00, 3,   boost,   84.49,  99731.00,  133.54,    1.43,    4.49, 22.8, 0.00, 0.00, 3.72,  92.81,   1.62,   0.49, -12.95,  -0.62,  -1.03,   0.26,  -0.11,  -0.33,   4.08, 0.00, 0.00, 0.00, 0.00, 0.00, 1, 1,  9,  38.3980216, -78.0648347,   130.0, 2024,  2, 10, 18, 24, 47,        0,        0,   0,   0,   1.4,   0.8,   1.1,  0, 33,  0,  0,  0,  0, 23, 21, 30,  0,  0,  0, 26, 25,  0, 17, 22,  0,  0,  0, 32, 24,  0,  0,  0,  0, 27,  0,  0, 24,  0,  0
6, 10923, 4,N0AHK,     0.00, 3,   boost,   84.49,  99731.00,  133.54,    1.43,    4.49, 22.8, 0.00, 0.00, 3.72,  92.81,   1.62,   0.49, -12.95,  -0.62,  -1.03,   0.26,  -0.11,  -0.33,   4.06, 0.00, 0.00, 0.00, 0.00, 0.00, 1, 1,  9,  38.3980216, -78.0648347,   130.0, 2024,  2, 10, 18, 24, 47,        0,        0,   0,   0,   1.4,   0.8,   1.1,  0, 33,  0,  0,  0,  0, 23, 21, 30,  0,  0,  0, 26, 25,  0, 17, 22,  0,  0,  0, 32, 24,  0,  0,  0,  0, 27,  0,  0, 24,  0,  0
6, 10923, 4,N0AHK,     0.00, 3,   boost,   84.49,  99731.00,  133.54,    1.43,    4.49, 22.8, 0.00, 0.00, 3.72,  92.81,   1.62,   0.49, -12.95,  -0.62,  -1.03,   0.26,  -0.11,  -0.33,   4.05, 0.00, 0.00, 0.00, 0.00, 0.00, 1, 1,  9,  38.3980216, -78.0648347,   130.0, 2024,  2, 10, 18, 24, 47,        0,        0,   0,   0,   1.4,   0.8,   1.1,  0, 33,  0,  0,  0,  0, 23, 21, 30,  0,  0,  0, 26, 25,  0, 17, 22,  0,  0,  0, 32, 24,  0,  0,  0,  0, 27,  0,  0, 24,  0,  0
6, 10923, 4,N0AHK,     0.01, 3,   boost,   84.99,  99731.00,  133.54,    1.43,    5.35, 22.8, 0.00, 0.00, 3.72,  92.76,   2.54,   0.26, -20.88,  -1.35,   0.01,   0.26,  -0.11,  -0.33,   4.06, 0.00, 0.00, 0.00, 0.00, 0.00, 1, 1,  9,  38.3980216, -78.0648347,   130.0, 2024,  2, 10, 18, 24, 47,        0,        0,   0,   0,   1.4,   0.8,   1.1,  0, 33,  0,  0,  0,  0, 23, 21, 30,  0,  0,  0, 26, 25,  0, 17, 22,  0,  0,  0, 32, 24,  0,  0,  0,  0, 27,  0,  0, 24,  0,  0
6, 10923, 4,N0AHK,     0.01, 3,   boost,   84.99,  99731.00,  133.54,    1.43,    5.35, 22.8, 0.00, 0.00, 3.72,  92.76,   2.54,   0.26, -20.88,  -1.35,   0.01,   0.26,  -0.11,  -0.33,   4.06, 0.00, 0.00, 0.00, 0.00, 0.00, 1, 1,  9,  38.3980216, -78.0648347,   130.0, 2024,  2, 10, 18, 24, 47,        0,        0,   0,   0,   1.4,   0.8,   1.1,  0, 33,  0,  0,  0,  0, 23, 21, 30,  0,  0,  0, 26, 25,  0, 17, 22,  0,  0,  0, 32, 24,  0,  0,  0,  0, 27,  0,  0, 24,  0,  0
6, 10923, 4,N0AHK,     0.02, 3,   boost,   88.01,  99726.00,  133.96,    1.85,    6.22, 22.8, 0.00, 0.00, 3.71,  93.12,   1.57,   0.90, -33.15,  -0.19,   1.29,   0.27,  -0.10,  -0.33,   4.07, 0.00, 0.00, 0.00, 0.00, 0.02, 1, 1,  9,  38.3980216, -78.0648347,   130.0, 2024,  2, 10, 18, 24, 47,        0,        0,   0,   0,   1.4,   0.8,   1.1,  0, 33,  0,  0,  0,  0, 23, 21, 30,  0,  0,  0, 26, 25,  0, 17, 22,  0,  0,  0, 32, 24,  0,  0,  0,  0, 27,  0,  0, 24,  0,  0
6, 10923, 4,N0AHK,     0.02, 3,   boost,   88.01,  99726.00,  133.96,    1.85,    6.22, 22.8, 0.00, 0.00, 3.71,  93.12,   1.57,   0.90, -33.15,  -0.19,   1.29,   0.27,  -0.10,  -0.33,   4.07, 0.00, 0.00, 0.00, 0.00, 0.02, 1, 1,  9,  38.3980216, -78.0648347,   130.0, 2024,  2, 10, 18, 24, 47,        0,        0,   0,   0,   1.4,   0.8,   1.1,  0, 33,  0,  0,  0,  0, 23, 21, 30,  0,  0,  0, 26, 25,  0, 17, 22,  0,  0,  0, 32, 24,  0,  0,  0,  0, 27,  0,  0, 24,  0,  0
6, 10923, 4,N0AHK,     0.03, 3,   boost,   88.51,  99726.00,  133.96,    1.85,    7.10, 22.8, 0.00, 0.00, 3.71,  93.83,   1.46,  -0.24, -46.76,   0.30,   1.66,   0.26,  -0.10,  -0.33,   4.08, 0.00, 0.00, 0.00, 0.00, 0.02, 1, 1,  9,  38.3980216, -78.0648347,   130.0, 2024,  2, 10, 18, 24, 47,        0,        0,   0,   0,   1.4,   0.8,   1.1,  0, 33,  0,  0,  0,  0, 23, 21, 30,  0,  0,  0, 26, 25,  0, 17, 22,  0,  0,  0, 32, 24,  0,  0,  0,  0, 27,  0,  0, 24,  0,  0
6, 10923, 4,N0AHK,     0.04, 3,   boost,   91.53,  99751.00,  131.86,   -0.25,    7.98, 22.8, 0.00, 0.00, 3.71,  94.17,   2.19,   2.17, -57.69,  -1.10,  -0.30,   0.26,  -0.10,  -0.33,   4.09, 0.00, 0.00, 0.00, 0.00, 0.02, 1, 1,  9,  38.3980216, -78.0648347,   130.0, 2024,  2, 10, 18, 24, 47,        0,        0,   0,   0,   1.4,   0.8,   1.1,  0, 33,  0,  0,  0,  0, 23, 21, 30,  0,  0,  0, 26, 25,  0, 17, 22,  0,  0,  0, 32, 24,  0,  0,  0,  0, 27,  0,  0, 24,  0,  0
6, 10923, 4,N0AHK,     0.05, 3,   boost,   90.52,  99751.00,  131.86,   -0.25,    8.88, 22.8, 0.00, 0.00, 3.71,  94.69,  -1.07,   1.92, -31.07,  -0.62,   0.80,   0.26,  -0.10,  -0.33,   4.10, 0.00, 0.00, 0.00, 0.00, 0.02, 1, 1,  9,  38.3980216, -78.0648347,   130.0, 2024,  2, 10, 18, 24, 47,        0,        0,   0,   0,   1.4,   0.8,   1.1,  0, 33,  0,  0,  0,  0, 23, 21, 30,  0,  0,  0, 26, 25,  0, 17, 22,  0,  0,  0, 32, 24,  0,  0,  0,  0, 27,  0,  0, 24,  0,  0
6, 10923, 4,N0AHK,     0.06, 3,   boost,   90.52,  99752.00,  131.77,   -0.34,    9.78, 22.8, 0.00, 0.00, 3.71,  94.97,  -0.27,   0.72,  -2.63,  -1.35,   0.98,   0.26,  -0.10,  -0.33,   4.11, 0.00, 0.00, 0.00, 0.00, 0.02, 1, 1,  9,  38.3980216, -78.0648347,   130.0, 2024,  2, 10, 18, 24, 47,        0,        0,   0,   0,   1.4,   0.8,   1.1,  0, 33,  0,  0,  0,  0, 23, 21, 30,  0,  0,  0, 26, 25,  0, 17, 22,  0,  0,  0, 32, 24,  0,  0,  0,  0, 27,  0,  0, 24,  0,  0
6, 10923, 4,N0AHK,     0.07, 3,   boost,   90.52,  99752.00,  131.77,   -0.34,   10.68, 22.8, 0.00, 0.00, 3.71,  96.30,   2.62,   0.75,  17.14,  -0.07,   0.98,   0.26,  -0.10,  -0.33,   4.12, 0.00, 0.00, 0.00, 0.00, 0.02, 1, 1,  9,  38.3980216, -78.0648347,   130.0, 2024,  2, 10, 18, 24, 47,        0,        0,   0,   0,   1.4,   0.8,   1.1,  0, 33,  0,  0,  0,  0, 23, 21, 30,  0,  0,  0, 26, 25,  0, 17, 22,  0,  0,  0, 32, 24,  0,  0,  0,  0, 27,  0,  0, 24,  0,  0
6, 10923, 4,N0AHK,     0.08, 3,   boost,   90.02,  99758.00,  131.26,   -0.84,   11.59, 22.8, 0.00, 0.00, 3.71,  96.97,   1.98,   0.68,  -1.96,  -0.62,  -0.24,   0.26,  -0.10,  -0.33,   4.12, 0.00, 0.00, 0.00, 0.00, 0.02, 1, 1,  9,  38.3980216, -78.0648347,   130.0, 2024,  2, 10, 18, 24, 47,        0,        0,   0,   0,   1.4,   0.8,   1.1,  0, 33,  0,  0,  0,  0, 23, 21, 30,  0,  0,  0, 26, 25,  0, 17, 22,  0,  0,  0, 32, 24,  0,  0,  0,  0, 27,  0,  0, 24,  0,  0
6, 10923, 4,N0AHK,     0.09, 3,   boost,   90.52,  99758.00,  131.26,   -0.84,   12.50, 22.8, 0.00, 0.00, 3.71,  98.84,   2.50,   0.37, -13.37,  -0.19,   1.47,   0.26,  -0.10,  -0.33,   4.14, 0.00, 0.00, 0.00, 0.00, 0.02, 1, 1,  9,  38.3980216, -78.0648347,   130.0, 2024,  2, 10, 18, 24, 47,        0,        0,   0,   0,   1.4,   0.8,   1.1,  0, 33,  0,  0,  0,  0, 23, 21, 30,  0,  0,  0, 26, 25,  0, 17, 22,  0,  0,  0, 32, 24,  0,  0,  0,  0, 27,  0,  0, 24,  0,  0
6, 10923, 4,N0AHK,     0.10, 3,   boost,   92.53,  99731.00,  133.54,    1.43,   13.41, 22.8, 0.00, 0.00, 3.71,  99.24,   0.26,   2.16,  -8.31,   0.79,   2.20,   0.26,  -0.10,  -0.33,   4.15, 0.00, 0.00, 0.00, 0.00, 0.02, 1, 1,  9,  38.3980216, -78.0648347,   130.0, 2024,  2, 10, 18, 24, 47,        0,        0,   0,   0,   1.4,   0.8,   1.1,  0, 33,  0,  0,  0,  0, 23, 21, 30,  0,  0,  0, 26, 25,  0, 17, 22,  0,  0,  0, 32, 24,  0,  0,  0,  0, 27,  0,  0, 24,  0,  0
6, 10923, 4,N0AHK,     0.11, 3,   boost,   92.53,  99731.00,  133.54,    1.43,   14.33, 22.8, 0.00, 0.00, 3.71, 100.04,   1.11,   0.60,  15.68,   1.40,   2.45,   0.26,  -0.10,  -0.33,   4.16, 0.00, 0.00, 0.00, 0.00, 0.02, 1, 1,  9,  38.3980216, -78.0648347,   130.0, 2024,  2, 10, 18, 24, 47,        0,        0,   0,   0,   1.4,   0.8,   1.1,  0, 33,  0,  0,  0,  0, 23, 21, 30,  0,  0,  0, 26, 25,  0, 17, 22,  0,  0,  0, 32, 24,  0,  0,  0,  0, 27,  0,  0, 24,  0,  0
6, 10923, 4,N0AHK,     0.12, 3,   boost,   94.55,  99741.00,  132.70,    0.59,   15.26, 22.8, 0.00, 0.00, 3.71, 101.57,  -0.42,   2.51,  32.16,   1.15,   2.14,   0.26,  -0.10,  -0.33,   4.18, 0.00, 0.00, 0.00, 0.00, 0.02, 1, 1,  9,  38.3980216, -78.0648347,   130.0, 2024,  2, 10, 18, 24, 47,        0,        0,   0,   0,   1.4,   0.8,   1.1,  0, 33,  0,  0,  0,  0, 23, 21, 30,  0,  0,  0, 26, 25,  0, 17, 22,  0,  0,  0, 32, 24,  0,  0,  0,  0, 27,  0,  0, 24,  0,  0
6, 10923, 4,N0AHK,     0.13, 3,   boost,   93.54,  99741.00,  132.70,    0.59,   16.19, 22.8, 0.00, 0.00, 3.71, 103.48,   4.15,   1.52,  35.39,   1.40,   2.88,   0.26,  -0.10,  -0.33,   4.19, 0.00, 0.00, 0.00, 0.00, 0.02, 1, 1,  9,  38.3980216, -78.0648347,   130.0, 2024,  2, 10, 18, 24, 47,        0,        0,   0,   0,   1.4,   0.8,   1.1,  0, 33,  0,  0,  0,  0, 23, 21, 30,  0,  0,  0, 26, 25,  0, 17, 22,  0,  0,  0, 32, 24,  0,  0,  0,  0, 27,  0,  0, 24,  0,  0
6, 10923, 4,N0AHK,     0.14, 3,   boost,   94.55,  99771.00,  130.17,   -1.94,   17.12, 22.8, 0.00, 0.00, 3.71, 100.00,   1.98,   0.85,  32.22,   1.09,   3.36,   0.26,  -0.10,  -0.33,   4.21, 0.00, 0.00, 0.00, 0.00, 0.02, 1, 1,  9,  38.3980216, -78.0648347,   130.0, 2024,  2, 10, 18, 24, 47,        0,        0,   0,   0,   1.4,   0.8,   1.1,  0, 33,  0,  0,  0,  0, 23, 21, 30,  0,  0,  0, 26, 25,  0, 17, 22,  0,  0,  0, 32, 24,  0,  0,  0,  0, 27,  0,  0, 24,  0,  0
6, 10923, 4,N0AHK,     0.15, 3,   boost,   92.53,  99771.00,  130.17,   -1.94,   18.06, 22.8, 0.00, 0.00, 3.71, 100.54,  -0.15,   1.65,  31.18,   0.24,   2.88,   0.26,  -0.11,  -0.33,   4.24, 0.00, 0.00, 0.00, 0.00, 0.02, 1, 1,  9,  38.3980216, -78.0648347,   130.0, 2024,  2, 10, 18, 24, 47,        0,        0,   0,   0,   1.4,   0.8,   1.1,  0, 33,  0,  0,  0,  0, 23, 21, 30,  0,  0,  0, 26, 25,  0, 17, 22,  0,  0,  0, 32, 24,  0,  0,  0,  0, 27,  0,  0, 24,  0,  0
6, 10923, 4,N0AHK,     0.16, 3,   boost,   94.04,  99726.00,  133.96,    1.85,   18.99, 22.8, 0.00, 0.00, 3.71, 100.70,   2.03,   0.32,  55.54,   2.50,   3.06,   0.26,  -0.11,  -0.33,   4.25, 0.00, 0.00, 0.00, 0.00, 0.02, 1, 1,  9,  38.3980216, -78.0648347,   130.0, 2024,  2, 10, 18, 24, 47,        0,        0,   0,   0,   1.4,   0.8,   1.1,  0, 33,  0,  0,  0,  0, 23, 21, 30,  0,  0,  0, 26, 25,  0, 17, 22,  0,  0,  0, 32, 24,  0,  0,  0,  0, 27,  0,  0, 24,  0,  0
6, 10923, 4,N0AHK,     0.17, 3,   boost,   93.04,  99726.00,  133.96,    1.85,   19.93, 22.8, 0.00, 0.00, 3.71, 100.99,   0.92,   1.39,  42.53,   1.89,   3.30,   0.26,  -0.11,  -0.33,   4.27, 0.00, 0.00, 0.00, 0.00, 0.02, 1, 1,  9,  38.3980216, -78.0648347,   130.0, 2024,  2, 10, 18, 24, 47,        0,        0,   0,   0,   1.4,   0.8,   1.1,  0, 33,  0,  0,  0,  0, 23, 21, 30,  0,  0,  0, 26, 25,  0, 17, 22,  0,  0,  0, 32, 24,  0,  0,  0,  0, 27,  0,  0, 24,  0,  0
6, 10923, 4,N0AHK,     0.18, 3,   boost,   93.04,  99725.00,  134.05,    1.94,   20.87, 22.8, 0.00, 0.00, 3.71, 101.21,  -0.20,   1.85,  36.55,   1.40,   2.39,   0.26,  -0.11,  -0.33,   4.28, 0.00, 0.00, 0.00, 0.00, 0.02, 1, 1,  9,  38.3980216, -78.0648347,   130.0, 2024,  2, 10, 18, 24, 47,        0,        0,   0,   0,   1.4,   0.8,   1.1,  0, 33,  0,  0,  0,  0, 23, 21, 30,  0,  0,  0, 26, 25,  0, 17, 22,  0,  0,  0, 32, 24,  0,  0,  0,  0, 27,  0,  0, 24,  0,  0
6, 10923, 4,N0AHK,     0.19, 3,   boost,   97.06,  99725.00,  134.05,    1.94,   21.83, 22.8, 0.00, 0.00, 3.71, 101.13,   1.44,   1.11,  39.85,   1.15,   2.14,   0.26,  -0.11,  -0.33,   4.29, 0.00, 0.00, 0.00, 0.00, 0.02, 1, 1,  9,  38.3980216, -78.0648347,   130.0, 2024,  2, 10, 18, 24, 47,        0,        0,   0,   0,   1.4,   0.8,   1.1,  0, 33,  0,  0,  0,  0, 23, 21, 30,  0,  0,  0, 26, 25,  0, 17, 22,  0,  0,  0, 32, 24,  0,  0,  0,  0, 27,  0,  0, 24,  0,  0
6, 10923, 4,N0AHK,     0.20, 3,   boost,   99.07,  99723.00,  134.22,    2.11,   22.79, 22.8, 0.00, 0.00, 3.71, 102.47,   1.57,   0.49,  35.70,   1.64,   2.75,   0.26,  -0.11,  -0.33,   4.31, 0.00, 0.00, 0.00, 0.00, 0.02, 1, 1,  9,  38.3980216, -78.0648347,   130.0, 2024,  2, 10, 18, 24, 47,        0,        0,   0,   0,   1.4,   0.8,   1.1,  0, 33,  0,  0,  0,  0, 23, 21, 30,  0,  0,  0, 26, 25,  0, 17, 22,  0,  0,  0, 32, 24,  0,  0,  0,  0, 27,  0,  0, 24,  0,  0
6, 10923, 4,N0AHK,     0.21, 3,   boost,   98.57,  99723.00,  134.22,    2.11,   23.77, 22.8, 0.00, 0.00, 3.71, 106.03,   0.88,   0.83,  34.36,   1.58,   2.20,   0.26,  -0.11,  -0.33,   4.32, 0.00, 0.00, 0.00, 0.00, 0.02, 1, 1,  9,  38.3980216, -78.0648347,   130.0, 2024,  2, 10, 18, 24, 47,        0,        0,   0,   0,   1.4,   0.8,   1.1,  0, 33,  0,  0,  0,  0, 23, 21, 30,  0,  0,  0, 26, 25,  0, 17, 22,  0,  0,  0, 32, 24,  0,  0,  0,  0, 27,  0,  0, 24,  0,  0
6, 10923, 4,N0AHK,     0.22, 3,   boost,  100.08,  99710.00,  135.31,    3.20,   24.76, 22.8, 0.00, 0.00, 3.71, 105.54,   1.72,   0.84,  33.44,   1.09,   2.75,   0.26,  -0.12,  -0.33,   4.33, 0.00, 0.00, 0.00, 0.00, 0.02, 1, 1,  9,  38.3980216, -78.0648347,   130.0, 2024,  2, 10, 18, 24, 47,        0,        0,   0,   0,   1.4,   0.8,   1.1,  0, 33,  0,  0,  0,  0, 23, 21, 30,  0,  0,  0, 26, 25,  0, 17, 22,  0,  0,  0, 32, 24,  0,  0,  0,  0, 27,  0,  0, 24,  0,  0
6, 10923, 4,N0AHK,     0.23, 3,   boost,  101.59,  99710.00,  135.31,    3.20,   25.75, 22.8, 0.00, 0.00, 3.71, 107.84,   0.95,   0.91,  32.46,   1.03,   2.88,   0.26,  -0.12,  -0.33,   4.35, 0.00, 0.00, 0.00, 0.00, 0.02, 1, 1,  9,  38.3980216, -78.0648347,   130.0, 2024,  2, 10, 18, 24, 47,        0,        0,   0,   0,   1.4,   0.8,   1.1,  0, 33,  0,  0,  0,  0, 23, 21, 30,  0,  0,  0, 26, 25,  0, 17, 22,  0,  0,  0, 32, 24,  0,  0,  0,  0, 27,  0,  0, 24,  0,  0
6, 10923, 4,N0AHK,     0.24, 3,   boost,   99.07,  99710.00,  135.31,    3.20,   26.74, 22.8, 0.00, 0.00, 3.71, 107.08,   1.65,   1.13,  30.88,   0.97,   3.18,   0.26,  -0.12,  -0.32,   4.37, 0.00, 0.00, 0.00, 0.00, 0.02, 1, 1,  9,  38.3980216, -78.0648347,   130.0, 2024,  2, 10, 18, 24, 47,        0,        0,   0,   0,   1.4,   0.8,   1.1,  0, 33,  0,  0,  0,  0, 23, 21, 30,  0,  0,  0, 26, 25,  0, 17, 22,  0,  0,  0, 32, 24,  0,  0,  0,  0, 27,  0,  0, 24,  0,  0
6, 10923, 4,N0AHK,     0.25, 3,   boost,   97.06,  99710.00,  135.31,    3.20,   27.72, 22.8, 0.00, 0.00, 3.71, 106.34,   1.06,   0.93,  30.51,   0.85,   3.18,   0.26,  -0.12,  -0.32,   4.40, 0.00, 0.00, 0.00, 0.00, 0.02, 1, 1,  9,  38.3980216, -78.0648347,   130.0, 2024,  2, 10, 18, 24, 47,        0,        0,   0,   0,   1.4,   0.8,   1.1,  0, 33,  0,  0,  0,  0, 23, 21, 30,  0,  0,  0, 26, 25,  0, 17, 22,  0,  0,  0, 32, 24,  0,  0,  0,  0, 27,  0,  0, 24,  0,  0
6, 10923, 4,N0AHK,     0.26, 3,   boost,   96.56,  99705.00,  135.73,    3.63,   28.69, 22.8, 0.00, 0.00, 3.71, 105.83,   1.40,   1.10,  29.23,   1.15,   3.79,   0.26,  -0.12,  -0.32,   4.42, 0.00, 0.00, 0.00, 0.00, 0.02, 1, 1,  9,  38.3980216, -78.0648347,   130.0, 2024,  2, 10, 18, 24, 47,        0,        0,   0,   0,   1.4,   0.8,   1.1,  0, 33,  0,  0,  0,  0, 23, 21, 30,  0,  0,  0, 26, 25,  0, 17, 22,  0,  0,  0, 32, 24,  0,  0,  0,  0, 27,  0,  0, 24,  0,  0
6, 10923, 4,N0AHK,     0.27, 3,   boost,   97.56,  99705.00,  135.73,    3.63,   29.67, 22.8, 0.00, 0.00, 3.71, 105.62,   0.59,   0.45,  28.44,   2.19,   3.18,   0.26,  -0.12,  -0.32,   4.44, 0.00, 0.00, 0.00, 0.00, 0.02, 1, 1,  9,  38.3980216, -78.0648347,   130.0, 2024,  2, 10, 18, 24, 47,        0,        0,   0,   0,   1.4,   0.8,   1.1,  0, 33,  0,  0,  0,  0, 23, 21, 30,  0,  0,  0, 26, 25,  0, 17, 22,  0,  0,  0, 32, 24,  0,  0,  0,  0, 27,  0,  0, 24,  0,  0
6, 10923, 4,N0AHK,     0.28, 3,   boost,   98.07,  99707.00,  135.57,    3.46,   30.64, 22.8, 0.00, 0.00, 3.71, 105.09,   1.37,   1.11,  26.67,   3.11,   2.08,   0.26,  -0.12,  -0.32,   4.44, 0.00, 0.00, 0.00, 0.00, 0.02, 1, 1,  9,  38.3980216, -78.0648347,   130.0, 2024,  2, 10, 18, 24, 47,        0,        0,   0,   0,   1.4,   0.8,   1.1,  0, 33,  0,  0,  0,  0, 23, 21, 30,  0,  0,  0, 26, 25,  0, 17, 22,  0,  0,  0, 32, 24,  0,  0,  0,  0, 27,  0,  0, 24,  0,  0
6, 10923, 4,N0AHK,     0.29, 3,   boost,   96.05,  99707.00,  135.57,    3.46,   31.61, 22.8, 0.00, 0.00, 3.71, 105.19,   0.84,   0.60,  25.99,   4.21,   0.86,   0.26,  -0.12,  -0.32,   4.42, 0.00, 0.00, 0.00, 0.00, 0.02, 1, 1,  9,  38.3980216, -78.0648347,   130.0, 2024,  2, 10, 18, 24, 47,        0,        0,   0,   0,   1.4,   0.8,   1.1,  0, 33,  0,  0,  0,  0, 23, 21, 30,  0,  0,  0, 26, 25,  0, 17, 22,  0,  0,  0, 32, 24,  0,  0,  0,  0, 27,  0,  0, 24,  0,  0
6, 10923, 4,N0AHK,     0.30, 3,   boost,   98.07,  99697.00,  136.41,    4.30,   32.57, 22.8, 0.00, 0.00, 3.71, 105.69,   1.11,   1.11,  24.65,   4.63,   0.01,   0.26,  -0.12,  -0.32,   4.40, 0.00, 0.00, 0.00, 0.00, 0.02, 1, 1,  9,  38.3980216, -78.0648347,   130.0, 2024,  2, 10, 18, 24, 47,        0,        0,   0,   0,   1.4,   0.8,   1.1,  0, 33,  0,  0,  0,  0, 23, 21, 30,  0,  0,  0, 26, 25,  0, 17, 22,  0,  0,  0, 32, 24,  0,  0,  0,  0, 27,  0,  0, 24,  0,  0
6, 10923, 4,N0AHK,     0.31, 3,   boost,   95.05,  99697.00,  136.41,    4.30,   33.54, 22.8, 0.00, 0.00, 3.71, 106.01,   1.03,   0.65,  23.31,   5.91,  -0.66,   0.26,  -0.12,  -0.32,   4.36, 0.00, 0.00, 0.00, 0.00, 0.02, 1, 1,  9,  38.3980216, -78.0648347,   130.0, 2024,  2, 10, 18, 24, 47,        0,        0,   0,   0,   1.4,   0.8,   1.1,  0, 33,  0,  0,  0,  0, 23, 21, 30,  0,  0,  0, 26, 25,  0, 17, 22,  0,  0,  0, 32, 24,  0,  0,  0,  0, 27,  0,  0, 24,  0,  0
6, 10923, 4,N0AHK,     0.32, 3,   boost,   98.57,  99688.00,  137.17,    5.06,   34.52, 22.8, 0.00, 0.00, 3.71, 106.08,   1.09,   0.92,  22.45,   6.65,  -1.64,   0.26,  -0.12,  -0.32,   4.32, 0.00, 0.00, 0.00, 0.00, 0.02, 1, 1,  9,  38.3980216, -78.0648347,   130.0, 2024,  2, 10, 18, 24, 47,        0,        0,   0,   0,   1.4,   0.8,   1.1,  0, 33,  0,  0,  0,  0, 23, 21, 30,  0,  0,  0, 26, 25,  0, 17, 22,  0,  0,  0, 32, 24,  0,  0,  0,  0, 27,  0,  0, 24,  0,  0
6, 10923, 4,N0AHK,     0.33, 3,   boost,  100.08,  99688.00,  137.17,    5.06,   35.49, 22.8, 0.00, 0.00, 3.71, 106.00,   1.15,   0.85,  21.17,   7.56,  -2.50,   0.26,  -0.12,  -0.32,   4.26, 0.00, 0.00, 0.00, 0.00, 0.02, 1, 1,  9,  38.3980216, -78.0648347,   130.0, 2024,  2, 10, 18, 24, 47,        0,        0,   0,   0,   1.4,   0.8,   1.1,  0, 33,  0,  0,  0,  0, 23, 21, 30,  0,  0,  0, 26, 25,  0, 17, 22,  0,  0,  0, 32, 24,  0,  0,  0,  0, 27,  0,  0, 24,  0,  0
6, 10923, 4,N0AHK,     0.34, 3,   boost,   96.05,  99675.00,  138.26,    6.16,   36.47, 22.8, 0.00, 0.00, 3.71, 105.81,   1.10,   1.03,  20.32,   8.54,  -3.04,   0.26,  -0.12,  -0.32,   4.19, 0.00, 0.00, 0.00, 0.00, 0.00, 1, 1,  9,  38.3980216, -78.0648347,   130.0, 2024,  2, 10, 18, 24, 47,        0,        0,   0,   0,   1.4,   0.8,   1.1,  0, 33,  0,  0,  0,  0, 23, 21, 30,  0,  0,  0, 26, 25,  0, 17, 22,  0,  0,  0, 32, 24,  0,  0,  0,  0, 27,  0,  0, 24,  0,  0
6, 10923, 4,N0AHK,     0.34, 3,   boost,   96.05,  99675.00,  138.26,    6.16,   36.47, 22.8, 0.00, 0.00, 3.71, 105.81,   1.10,   1.03,  20.32,   8.54,  -3.04,   0.26,  -0.12,  -0.32,   4.19, 0.00, 0.00, 0.00, 0.00, 0.00, 1, 1,  9,  38.3980216, -78.0648347,   130.0, 2024,  2, 10, 18, 24, 47,        0,        0,   0,   0,   1.4,   0.8,   1.1,  0, 33,  0,  0,  0,  0, 23, 21, 30,  0,  0,  0, 26, 25,  0, 17, 22,  0,  0,  0, 32, 24,  0,  0,  0,  0, 27,  0,  0, 24,  0,  0
6, 10923, 4,N0AHK,     0.35, 3,   boost,   99.07,  99675.00,  138.26,    6.16,   37.44, 22.8, 0.00, 0.00, 3.71, 105.36,   1.44,   0.70,  18.91,   9.27,  -3.35,   0.26,  -0.13,  -0.32,   4.11, 0.00, 0.00, 0.00, 0.00, 0.00, 1, 1,  9,  38.3980216, -78.0648347,   130.0, 2024,  2, 10, 18, 24, 47,        0,        0,   0,   0,   1.4,   0.8,   1.1,  0, 33,  0,  0,  0,  0, 23, 21, 30,  0,  0,  0, 26, 25,  0, 17, 22,  0,  0,  0, 32, 24,  0,  0,  0,  0, 27,  0,  0, 24,  0,  0
6, 10923, 4,N0AHK,     0.36, 3,   boost,   97.06,  99673.00,  138.43,    6.32,   38.42, 22.8, 0.00, 0.00, 3.71, 105.51,   1.14,   1.06,  18.98,  10.07,  -3.41,   0.26,  -0.12,  -0.33,   4.03, 0.00, 0.00, 0.00, 0.00, 0.00, 1, 1,  9,  38.3980216, -78.0648347,   130.0, 2024,  2, 10, 18, 24, 47,        0,        0,   0,   0,   1.4,   0.8,   1.1,  0, 33,  0,  0,  0,  0, 23, 21, 30,  0,  0,  0, 26, 25,  0, 17, 22,  0,  0,  0, 32, 24,  0,  0,  0,  0, 27,  0,  0, 24,  0,  0
6, 10923, 4,N0AHK,     0.37, 3,   boost,   99.07,  99673.00,  138.43,    6.32,   39.40, 22.8, 0.00, 0.00, 3.71, 105.10,   1.27,   0.75,  18.91,  10.86,  -3.23,   0.26,  -0.13,  -0.33,   3.96, 0.00, 0.00, 0.00, 0.00, 0.00, 1, 1,  9,  38.3980216, -78.0648347,   130.0, 2024,  2, 10, 18, 24, 47,        0,        0,   0,   0,   1.4,   0.8,   1.1,  0, 33,  0,  0,  0,  0, 23, 21, 30,  0,  0,  0, 26, 25,  0, 17, 22,  0,  0,  0, 32, 24,  0,  0,  0,  0, 27,  0,  0, 24,  0,  0
6, 10923, 4,N0AHK,     0.38, 3,   boost,   98.07,  99681.00,  137.76,    5.65,   40.38, 22.8, 0.00, 0.00, 3.71, 105.25,   1.19,   0.94,  18.12,  12.14,  -3.59,   0.26,  -0.13,  -0.33,   3.87, 0.00, 0.00, 0.00, 0.00, 0.00, 1, 1,  9,  38.3980216, -78.0648347,   130.0, 2024,  2, 10, 18, 24, 47,        0,        0,   0,   0,   1.4,   0.8,   1.1,  0, 33,  0,  0,  0,  0, 23, 21, 30,  0,  0,  0, 26, 25,  0, 17, 22,  0,  0,  0, 32, 24,  0,  0,  0,  0, 27,  0,  0, 24,  0,  0
6, 10923, 4,N0AHK,     0.39, 3,   boost,   98.57,  99681.00,  137.76,    5.65,   41.36, 22.8, 0.00, 0.00, 3.71, 105.45,   1.26,   0.94,  18.43,  12.93,  -3.53,   0.26,  -0.13,  -0.33,   3.78, 0.00, 0.00, 0.00, 0.00, 0.00, 1, 1,  9,  38.3980216, -78.0648347,   130.0, 2024,  2, 10, 18, 24, 47,        0,        0,   0,   0,   1.4,   0.8,   1.1,  0, 33,  0,  0,  0,  0, 23, 21, 30,  0,  0,  0, 26, 25,  0, 17, 22,  0,  0,  0, 32, 24,  0,  0,  0,  0, 27,  0,  0, 24,  0,  0
6, 10923, 4,N0AHK,     0.39, 3,   boost,   98.57,  99681.00,  137.76,    5.65,   41.36, 22.8, 0.00, 0.00, 3.71, 105.45,   1.26,   0.94,  18.43,  12.93,  -3.53,   0.26,  -0.13,  -0.33,   3.78, 0.00, 0.00, 0.00, 0.00, 0.00, 1, 1,  9,  38.3980216, -78.0648347,   130.0, 2024,  2, 10, 18, 24, 47,        0,        0,   0,   0,   1.4,   0.8,   1.1,  0, 33,  0,  0,  0,  0, 23, 21, 30,  0,  0,  0, 26, 25,  0, 17, 22,  0,  0,  0, 32, 24,  0,  0,  0,  0, 27,  0,  0, 24,  0,  0
6, 10923, 4,N0AHK,     0.39, 3,   boost,   98.57,  99681.00,  137.76,    5.65,   41.36, 22.8, 0.00, 0.00, 3.71, 105.45,   1.26,   0.94,  18.43,  12.93,  -3.53,   0.26,  -0.13,  -0.33,   3.78, 0.00, 0.00, 0.00, 0.00, 0.00, 1, 1,  9,  38.3980216, -78.0648347,   130.0, 2024,  2, 10, 18, 24, 47,        0,        0,   0,   0,   1.4,   0.8,   1.1,  0, 33,  0,  0,  0,  0, 23, 21, 30,  0,  0,  0, 26, 25,  0, 17, 22,  0,  0,  0, 32, 24,  0,  0,  0,  0, 27,  0,  0, 24,  0,  0
6, 10923, 4,N0AHK,     0.40, 3,   boost,   96.56,  99661.00,  139.45,    7.34,   42.33, 22.8, 0.00, 0.00, 3.71, 105.40,   1.34,   0.86,  18.61,  13.91,  -3.41,   0.26,  -0.13,  -0.33,   3.69, 0.00, 0.00, 0.00, 0.00, 0.00, 1, 1,  9,  38.3980189, -78.0647773,   139.0, 2024,  2, 10, 18, 24, 48,        5,       10,  93,  61,   1.4,   0.8,   1.1,  0, 33,  0,  0,  0,  0, 22, 20, 23,  0,  0,  0, 25, 24,  0, 17, 22,  0,  0,  0, 32, 23,  0,  0,  0,  0, 25,  0,  0, 22,  0,  0
6, 10923, 4,N0AHK,     0.41, 3,   boost,   96.56,  99661.00,  139.45,    7.34,   43.30, 22.8, 0.00, 0.00, 3.71, 104.87,   1.37,   0.98,  18.43,  14.77,  -3.11,   0.26,  -0.13,  -0.33,   3.61, 0.00, 0.00, 0.00, 0.00, 0.00, 1, 1,  9,  38.3980189, -78.0647773,   139.0, 2024,  2, 10, 18, 24, 48,        5,       10,  93,  61,   1.4,   0.8,   1.1,  0, 33,  0,  0,  0,  0, 22, 20, 23,  0,  0,  0, 25, 24,  0, 17, 22,  0,  0,  0, 32, 23,  0,  0,  0,  0, 25,  0,  0, 22,  0,  0
6, 10923, 4,N0AHK,     0.42, 3,   boost,   97.56,  99646.00,  140.71,    8.60,   44.28, 22.8, 0.00, 0.00, 3.71, 104.99,   1.37,   1.03,  18.12,  15.99,  -2.74,   0.26,  -0.13,  -0.33,   3.53, 0.00, 0.00, 0.00, 0.00, 0.00, 1, 1,  9,  38.3980189, -78.0647773,   139.0, 2024,  2, 10, 18, 24, 48,        5,       10,  93,  61,   1.4,   0.8,   1.1,  0, 33,  0,  0,  0,  0, 22, 20, 23,  0,  0,  0, 25, 24,  0, 17, 22,  0,  0,  0, 32, 23,  0,  0,  0,  0, 25,  0,  0, 22,  0,  0
6, 10923, 4,N0AHK,     0.43, 3,   boost,   98.57,  99646.00,  140.71,    8.60,   45.25, 22.8, 0.00, 0.00, 3.71, 105.50,   1.34,   1.11,  18.43,  16.72,  -1.95,   0.26,  -0.13,  -0.33,   3.46, 0.00, 0.00, 0.00, 0.00, 0.00, 1, 1,  9,  38.3980189, -78.0647773,   139.0, 2024,  2, 10, 18, 24, 48,        5,       10,  93,  61,   1.4,   0.8,   1.1,  0, 33,  0,  0,  0,  0, 22, 20, 23,  0,  0,  0, 25, 24,  0, 17, 22,  0,  0,  0, 32, 23,  0,  0,  0,  0, 25,  0,  0, 22,  0,  0
6, 10923, 4,N0AHK,     0.44, 3,   boost,   98.57,  99642.00,  141.05,    8.94,   46.23, 22.8, 0.00, 0.00, 3.71, 104.66,   1.08,   0.73,  18.06,  17.82,  -1.88,   0.26,  -0.13,  -0.33,   3.39, 0.00, 0.00, 0.00, 0.00, 0.00, 1, 1,  9,  38.3980189, -78.0647773,   139.0, 2024,  2, 10, 18, 24, 48,        5,       10,  93,  61,   1.4,   0.8,   1.1,  0, 33,  0,  0,  0,  0, 22, 20, 23,  0,  0,  0, 25, 24,  0, 17, 22,  0,  0,  0, 32, 23,  0,  0,  0,  0, 25,  0,  0, 22,  0,  0
6, 10923, 4,N0AHK,     0.45, 3,   boost,   96.56,  99642.00,  141.05,    8.94,   47.20, 22.8, 0.00, 0.00, 3.71, 104.78,   1.57,   1.16,  18.55,  18.98,  -1.64,   0.26,  -0.13,  -0.33,   3.33, 0.00, 0.00, 0.00, 0.00, 0.00, 1, 1,  9,  38.3980189, -78.0647773,   139.0, 2024,  2, 10, 18, 24, 48,        5,       10,  93,  61,   1.4,   0.8,   1.1,  0, 33,  0,  0,  0,  0, 22, 20, 23,  0,  0,  0, 25, 24,  0, 17, 22,  0,  0,  0, 32, 23,  0,  0,  0,  0, 25,  0,  0, 22,  0,  0
6, 10923, 4,N0AHK,     0.46, 3,   boost,   98.07,  99628.00,  142.23,   10.12,   48.17, 22.8, 0.00, 0.00, 3.71, 104.35,   1.16,   1.04,  18.43,  20.32,  -1.15,   0.25,  -0.13,  -0.33,   3.29, 0.00, 0.00, 0.00, 0.00, 0.00, 1, 1,  9,  38.3980189, -78.0647773,   139.0, 2024,  2, 10, 18, 24, 48,        5,       10,  93,  61,   1.4,   0.8,   1.1,  0, 33,  0,  0,  0,  0, 22, 20, 23,  0,  0,  0, 25, 24,  0, 17, 22,  0,  0,  0, 32, 23,  0,  0,  0,  0, 25,  0,  0, 22,  0,  0
6, 10923, 4,N0AHK,     0.47, 3,   boost,   96.56,  99628.00,  142.23,   10.12,   49.14, 22.8, 0.00, 0.00, 3.71, 104.17,   1.44,   1.24,  18.91,  21.54,  -0.48,   0.25,  -0.13,  -0.33,   3.26, 0.00, 0.00, 0.00, 0.00, 0.00, 1, 1,  9,  38.3980189, -78.0647773,   139.0, 2024,  2, 10, 18, 24, 48,        5,       10,  93,  61,   1.4,   0.8,   1.1,  0, 33,  0,  0,  0,  0, 22, 20, 23,  0,  0,  0, 25, 24,  0, 17, 22,  0,  0,  0, 32, 23,  0,  0,  0,  0, 25,  0,  0, 22,  0,  0
6, 10923, 4,N0AHK,     0.48, 3,   boost,   95.05,  99625.00,  142.48,   10.37,   50.10, 22.8, 0.00, 0.00, 3.71, 104.23,   1.47,   1.07,  17.33,  22.64,   0.31,   0.25,  -0.13,  -0.34,   3.25, 0.00, 0.00, 0.00, 0.00, 0.00, 1, 1,  9,  38.3980189, -78.0647773,   139.0, 2024,  2, 10, 18, 24, 48,        5,       10,  93,  61,   1.4,   0.8,   1.1,  0, 33,  0,  0,  0,  0, 22, 20, 23,  0,  0,  0, 25, 24,  0, 17, 22,  0,  0,  0, 32, 23,  0,  0,  0,  0, 25,  0,  0, 22,  0,  0
6, 10923, 4,N0AHK,     0.49, 3,   boost,   96.05,  99625.00,  142.48,   10.37,   51.06, 22.8, 0.00, 0.00, 3.71, 104.11,   1.31,   1.34,  16.29,  23.62,   1.23,   0.25,  -0.13,  -0.34,   3.27, 0.00, 0.00, 0.00, 0.00, 0.00, 1, 1,  9,  38.3980189, -78.0647773,   139.0, 2024,  2, 10, 18, 24, 48,        5,       10,  93,  61,   1.4,   0.8,   1.1,  0, 33,  0,  0,  0,  0, 22, 20, 23,  0,  0,  0, 25, 24,  0, 17, 22,  0,  0,  0, 32, 23,  0,  0,  0,  0, 25,  0,  0, 22,  0,  0
6, 10923, 4,N0AHK,     0.50, 3,   boost,   96.56,  99609.00,  143.83,   11.73,   52.02, 22.8, 0.00, 0.00, 3.71, 104.02,   1.37,   1.22,  15.86,  25.20,   2.08,   0.25,  -0.13,  -0.34,   3.31, 0.00, 0.00, 0.00, 0.00, 0.00, 1, 1,  9,  38.3980189, -78.0647773,   139.0, 2024,  2, 10, 18, 24, 48,        5,       10,  93,  61,   1.4,   0.8,   1.1,  0, 33,  0,  0,  0,  0, 22, 20, 23,  0,  0,  0, 25, 24,  0, 17, 22,  0,  0,  0, 32, 23,  0,  0,  0,  0, 25,  0,  0, 22,  0,  0
6, 10923, 4,N0AHK,     0.51, 3,   boost,   96.05,  99609.00,  143.83,   11.73,   52.98, 22.8, 0.00, 0.00, 3.71, 103.76,   1.06,   1.56,  15.43,  26.12,   2.69,   0.25,  -0.13,  -0.34,   3.38, 0.00, 0.00, 0.00, 0.00, 0.00, 1, 1,  9,  38.3980189, -78.0647773,   139.0, 2024,  2, 10, 18, 24, 48,        5,       10,  93,  61,   1.4,   0.8,   1.1,  0, 33,  0,  0,  0,  0, 22, 20, 23,  0,  0,  0, 25, 24,  0, 17, 22,  0,  0,  0, 32, 23,  0,  0,  0,  0, 25,  0,  0, 22,  0,  0
6, 10923, 4,N0AHK,     0.52, 3,   boost,   96.05,  99599.00,  144.68,   12.57,   53.93, 22.8, 0.00, 0.00, 3.71, 103.73,   1.34,   1.33,  15.80,  26.97,   3.18,   0.25,  -0.13,  -0.34,   3.48, 0.00, 0.00, 0.00, 0.00, 0.00, 1, 1,  9,  38.3980189, -78.0647773,   139.0, 2024,  2, 10, 18, 24, 48,        5,       10,  93,  61,   1.4,   0.8,   1.1,  0, 33,  0,  0,  0,  0, 22, 20, 23,  0,  0,  0, 25, 24,  0, 17, 22,  0,  0,  0, 32, 23,  0,  0,  0,  0, 25,  0,  0, 22,  0,  0
6, 10923, 4,N0AHK,     0.53, 3,   boost,   95.55,  99599.00,  144.68,   12.57,   54.89, 22.8, 0.00, 0.00, 3.71, 104.07,   1.03,   1.73,  15.37,  28.01,   3.36,   0.25,  -0.13,  -0.34,   3.59, 0.00, 0.00, 0.00, 0.00, 0.00, 1, 1,  9,  38.3980189, -78.0647773,   139.0, 2024,  2, 10, 18, 24, 48,        5,       10,  93,  61,   1.4,   0.8,   1.1,  0, 33,  0,  0,  0,  0, 22, 20, 23,  0,  0,  0, 25, 24,  0, 17, 22,  0,  0,  0, 32, 23,  0,  0,  0,  0, 25,  0,  0, 22,  0,  0
6, 10923, 4,N0AHK,     0.54, 3,   boost,   94.55,  99587.00,  145.69,   13.58,   55.84, 22.8, 0.00, 0.00, 3.71, 103.56,   0.89,   1.16,  15.56,  29.35,   3.18,   0.25,  -0.13,  -0.35,   3.73, 0.00, 0.00, 0.00, 0.00, 0.00, 1, 1,  9,  38.3980189, -78.0647773,   139.0, 2024,  2, 10, 18, 24, 48,        5,       10,  93,  61,   1.4,   0.8,   1.1,  0, 33,  0,  0,  0,  0, 22, 20, 23,  0,  0,  0, 25, 24,  0, 17, 22,  0,  0,  0, 32, 23,  0,  0,  0,  0, 25,  0,  0, 22,  0,  0
6, 10923, 4,N0AHK,     0.55, 3,   boost,   96.56,  99587.00,  145.69,   13.58,   56.80, 22.8, 0.00, 0.00, 3.71, 103.28,   0.90,   1.98,  15.31,  31.06,   2.88,   0.25,  -0.13,  -0.35,   3.89, 0.00, 0.00, 0.00, 0.00, 0.00, 1, 1,  9,  38.3980189, -78.0647773,   139.0, 2024,  2, 10, 18, 24, 48,        5,       10,  93,  61,   1.4,   0.8,   1.1,  0, 33,  0,  0,  0,  0, 22, 20, 23,  0,  0,  0, 25, 24,  0, 17, 22,  0,  0,  0, 32, 23,  0,  0,  0,  0, 25,  0,  0, 22,  0,  0
6, 10923, 4,N0AHK,     0.56, 3,   boost,   95.05,  99582.00,  146.11,   14.00,   57.75, 22.8, 0.00, 0.00, 3.71, 103.04,   0.80,   1.44,  15.43,  32.47,   2.14,   0.25,  -0.13,  -0.35,   4.07, 0.00, 0.00, 0.00, 0.00, 0.00, 1, 1,  9,  38.3980189, -78.0647773,   139.0, 2024,  2, 10, 18, 24, 48,        5,       10,  93,  61,   1.4,   0.8,   1.1,  0, 33,  0,  0,  0,  0, 22, 20, 23,  0,  0,  0, 25, 24,  0, 17, 22,  0,  0,  0, 32, 23,  0,  0,  0,  0, 25,  0,  0, 22,  0,  0
