#version,serial,flight,call,time,state,state_name,acceleration,pressure,altitude,height,speed,temperature,drogue_voltage,main_voltage,battery_voltage,accel_x,accel_y,accel_z,gyro_roll,gyro_pitch,gyro_yaw,mag_x,mag_y,mag_z,tilt,pyro,igniter_a,igniter_b,igniter_c,igniter_d,connected,locked,nsat,latitude,longitude,altitude,year,month,day,hour,minute,second,pad_dist,pad_range,pad_az,pad_el,pdop,hdop,vdop,sat01,sat02,sat03,sat04,sat05,sat06,sat07,sat08,sat09,sat10,sat11,sat12,sat13,sat14,sat15,sat16,sat17,sat18,sat19,sat20,sat21,sat22,sat23,sat24,sat25,sat26,sat27,sat28,sat29,sat30,sat31,sat32
6, 10923, 2,N0AHK,    -0.30, 3,   boost,   -0.00,  99388.00,  162.50,   -1.10,    0.00, 35.5, 0.00, 0.00, 3.85,   9.89,  -0.27,   0.35,   0.80,  -0.10,   0.17,   0.27,  -0.15,   0.01,   2.69, 9.57, 0.00, 0.00, 0.00, 0.00, 1, 1,  9,  38.3986075, -78.0643640,   136.0, 2023,  4, 16, 16, 52,  6,        0,        0, 270,   0,   1.9,   1.4,   1.2, 30,  0,  0,  0,  0,  0,  0, 28,  0,  0,  0,  0, 36, 28,  0,  0, 31,  0, 33,  0, 26,  0,  0,  0,  0,  0,  0,  0,  0, 23,  0,  0
6, 10923, 2,N0AHK,    -0.29, 3,   boost,    0.49,  99377.00,  163.43,   -0.17,    0.00, 35.5, 0.00, 0.00, 3.85,   9.90,  -0.29,   0.37,   0.25,   0.08,  -0.32,   0.27,  -0.15,   0.01,   2.69, 9.57, 0.00, 0.00, 0.00, 0.00, 1, 1,  9,  38.3986075, -78.0643640,   136.0, 2023,  4, 16, 16, 52,  6,        0,        0, 270,   0,   1.9,   1.4,   1.2, 30,  0,  0,  0,  0,  0,  0, 28,  0,  0,  0,  0, 36, 28,  0,  0, 31,  0, 33,  0, 26,  0,  0,  0,  0,  0,  0,  0,  0, 23,  0,  0
6, 10923, 2,N0AHK,    -0.28, 3,   boost,   -0.00,  99377.00,  163.43,   -0.17,    0.00, 35.5, 0.00, 0.00, 3.85,   9.89,  -0.29,   0.37,   0.19,   0.02,  -0.02,   0.27,  -0.15,   0.01,   2.69, 9.57, 0.00, 0.00, 0.00, 0.00, 1, 1,  9,  38.3986075, -78.0643640,   136.0, 2023,  4, 16, 16, 52,  6,        0,        0, 270,   0,   1.9,   1.4,   1.2, 30,  0,  0,  0,  0,  0,  0, 28,  0,  0,  0,  0, 36, 28,  0,  0, 31,  0, 33,  0, 26,  0,  0,  0,  0,  0,  0,  0,  0, 23,  0,  0
6, 10923, 2,N0AHK,    -0.27, 3,   boost,   -0.49,  99386.00,  162.67,   -0.93,    0.00, 35.5, 0.00, 0.00, 3.85,   9.90,  -0.32,   0.34,  -0.55,   0.26,   0.05,   0.27,  -0.15,   0.00,   2.69, 9.57, 0.00, 0.00, 0.00, 0.00, 1, 1,  9,  38.3986075, -78.0643640,   136.0, 2023,  4, 16, 16, 52,  6,        0,        0, 270,   0,   1.9,   1.4,   1.2, 30,  0,  0,  0,  0,  0,  0, 28,  0,  0,  0,  0, 36, 28,  0,  0, 31,  0, 33,  0, 26,  0,  0,  0,  0,  0,  0,  0,  0, 23,  0,  0
6, 10923, 2,N0AHK,    -0.26, 3,   boost,   -0.49,  99386.00,  162.67,   -0.93,    0.00, 35.5, 0.00, 0.00, 3.85,   9.89,  -0.33,   0.34,   0.06,  -0.29,  -0.08,   0.27,  -0.15,   0.00,   2.69, 9.57, 0.00, 0.00, 0.00, 0.00, 1, 1,  9,  38.3986075, -78.0643640,   136.0, 2023,  4, 16, 16, 52,  6,        0,        0, 270,   0,   1.9,   1.4,   1.2, 30,  0,  0,  0,  0,  0,  0, 28,  0,  0,  0,  0, 36, 28,  0,  0, 31,  0, 33,  0, 26,  0,  0,  0,  0,  0,  0,  0,  0, 23,  0,  0
6, 10923, 2,N0AHK,    -0.25, 3,   boost,    0.98,  99372.00,  163.86,    0.25,    0.00, 35.5, 0.00, 0.00, 3.85,   9.91,  -0.29,   0.37,  -0.24,  -0.29,  -0.26,   0.27,  -0.15,   0.01,   2.69, 9.57, 0.00, 0.00, 0.00, 0.00, 1, 1,  9,  38.3986075, -78.0643640,   136.0, 2023,  4, 16, 16, 52,  6,        0,        0, 270,   0,   1.9,   1.4,   1.2, 30,  0,  0,  0,  0,  0,  0, 28,  0,  0,  0,  0, 36, 28,  0,  0, 31,  0, 33,  0, 26,  0,  0,  0,  0,  0,  0,  0,  0, 23,  0,  0
6, 10923, 2,N0AHK,    -0.24, 3,   boost,   -0.00,  99372.00,  163.86,    0.25,    0.00, 35.5, 0.00, 0.00, 3.85,   9.89,  -0.31,   0.37,  -0.30,   0.02,   0.11,   0.26,  -0.15,   0.00,   2.69, 9.57, 0.00, 0.00, 0.00, 0.00, 1, 1,  9,  38.3986075, -78.0643640,   136.0, 2023,  4, 16, 16, 52,  6,        0,        0, 270,   0,   1.9,   1.4,   1.2, 30,  0,  0,  0,  0,  0,  0, 28,  0,  0,  0,  0, 36, 28,  0,  0, 31,  0, 33,  0, 26,  0,  0,  0,  0,  0,  0,  0,  0, 23,  0,  0
6, 10923, 2,N0AHK,    -0.23, 3,   boost,   -0.49,  99378.00,  163.35,   -0.25,    0.00, 35.5, 0.00, 0.00, 3.85,   9.89,  -0.30,   0.36,  -0.30,   0.20,  -0.08,   0.26,  -0.15,   0.00,   2.69, 9.57, 0.00, 0.00, 0.00, 0.00, 1, 1,  9,  38.3986075, -78.0643640,   136.0, 2023,  4, 16, 16, 52,  6,        0,        0, 270,   0,   1.9,   1.4,   1.2, 30,  0,  0,  0,  0,  0,  0, 28,  0,  0,  0,  0, 36, 28,  0,  0, 31,  0, 33,  0, 26,  0,  0,  0,  0,  0,  0,  0,  0, 23,  0,  0
6, 10923, 2,N0AHK,    -0.22, 3,   boost,    0.49,  99378.00,  163.35,   -0.25,    0.00, 35.5, 0.00, 0.00, 3.85,   9.88,  -0.34,   0.39,  -0.18,   0.08,   0.05,   0.27,  -0.15,   0.01,   2.69, 9.57, 0.00, 0.00, 0.00, 0.00, 1, 1,  9,  38.3986075, -78.0643640,   136.0, 2023,  4, 16, 16, 52,  6,        0,        0, 270,   0,   1.9,   1.4,   1.2, 30,  0,  0,  0,  0,  0,  0, 28,  0,  0,  0,  0, 36, 28,  0,  0, 31,  0, 33,  0, 26,  0,  0,  0,  0,  0,  0,  0,  0, 23,  0,  0
6, 10923, 2,N0AHK,    -0.21, 3,   boost,    0.98,  99376.00,  163.52,   -0.08,    0.01, 35.5, 0.00, 0.00, 3.85,   9.89,  -0.25,   0.34,   0.12,   0.14,  -0.02,   0.27,  -0.16,   0.01,   2.69, 9.57, 0.00, 0.00, 0.00, 0.00, 1, 1,  9,  38.3986075, -78.0643640,   136.0, 2023,  4, 16, 16, 52,  6,        0,        0, 270,   0,   1.9,   1.4,   1.2, 30,  0,  0,  0,  0,  0,  0, 28,  0,  0,  0,  0, 36, 28,  0,  0, 31,  0, 33,  0, 26,  0,  0,  0,  0,  0,  0,  0,  0, 23,  0,  0
6, 10923, 2,N0AHK,    -0.20, 3,   boost,   -0.49,  99376.00,  163.52,   -0.08,    0.01, 35.5, 0.00, 0.00, 3.85,   9.86,  -0.32,   0.46,   0.37,   0.14,  -0.08,   0.26,  -0.15,   0.00,   2.69, 9.57, 0.00, 0.00, 0.00, 0.00, 1, 1,  9,  38.3986075, -78.0643640,   136.0, 2023,  4, 16, 16, 52,  6,        0,        0, 270,   0,   1.9,   1.4,   1.2, 30,  0,  0,  0,  0,  0,  0, 28,  0,  0,  0,  0, 36, 28,  0,  0, 31,  0, 33,  0, 26,  0,  0,  0,  0,  0,  0,  0,  0, 23,  0,  0
6, 10923, 2,N0AHK,    -0.19, 3,   boost,   -0.00,  99371.00,  163.94,    0.34,    0.01, 35.5, 0.00, 0.00, 3.85,   9.90,  -0.27,   0.34,   0.25,  -0.35,  -0.02,   0.26,  -0.15,   0.00,   2.69, 9.57, 0.00, 0.00, 0.00, 0.00, 1, 1,  9,  38.3986075, -78.0643640,   136.0, 2023,  4, 16, 16, 52,  6,        0,        0, 270,   0,   1.9,   1.4,   1.2, 30,  0,  0,  0,  0,  0,  0, 28,  0,  0,  0,  0, 36, 28,  0,  0, 31,  0, 33,  0, 26,  0,  0,  0,  0,  0,  0,  0,  0, 23,  0,  0
6, 10923, 2,N0AHK,    -0.18, 3,   boost,   -0.49,  99371.00,  163.94,    0.34,    0.01, 35.5, 0.00, 0.00, 3.85,   9.90,  -0.33,   0.34,   0.43,  -0.16,  -0.08,   0.26,  -0.15,   0.00,   2.69, 9.57, 0.00, 0.00, 0.00, 0.00, 1, 1,  9,  38.3986075, -78.0643640,   136.0, 2023,  4, 16, 16, 52,  6,        0,        0, 270,   0,   1.9,   1.4,   1.2, 30,  0,  0,  0,  0,  0,  0, 28,  0,  0,  0,  0, 36, 28,  0,  0, 31,  0, 33,  0, 26,  0,  0,  0,  0,  0,  0,  0,  0, 23,  0,  0
6, 10923, 2,N0AHK,    -0.17, 3,   boost,    0.49,  99380.00,  163.18,   -0.42,    0.01, 35.5, 0.00, 0.00, 3.85,   9.91,  -0.29,   0.34,   0.19,  -0.10,  -0.08,   0.27,  -0.15,   0.01,   2.69, 9.57, 0.00, 0.00, 0.00, 0.00, 1, 1,  9,  38.3986075, -78.0643640,   136.0, 2023,  4, 16, 16, 52,  6,        0,        0, 270,   0,   1.9,   1.4,   1.2, 30,  0,  0,  0,  0,  0,  0, 28,  0,  0,  0,  0, 36, 28,  0,  0, 31,  0, 33,  0, 26,  0,  0,  0,  0,  0,  0,  0,  0, 23,  0,  0
6, 10923, 2,N0AHK,    -0.16, 3,   boost,   -0.49,  99380.00,  163.18,   -0.42,    0.00, 35.5, 0.00, 0.00, 3.85,   9.90,  -0.31,   0.34,  -0.06,   0.02,   0.05,   0.27,  -0.15,   0.01,   2.69, 9.57, 0.00, 0.00, 0.00, 0.00, 1, 1,  9,  38.3986075, -78.0643640,   136.0, 2023,  4, 16, 16, 52,  6,        0,        0, 270,   0,   1.9,   1.4,   1.2, 30,  0,  0,  0,  0,  0,  0, 28,  0,  0,  0,  0, 36, 28,  0,  0, 31,  0, 33,  0, 26,  0,  0,  0,  0,  0,  0,  0,  0, 23,  0,  0
6, 10923, 2,N0AHK,    -0.15, 3,   boost,   -0.49,  99375.00,  163.60,    0.00,    0.00, 35.5, 0.00, 0.00, 3.85,   9.93,  -0.32,   0.40,   0.31,   0.02,   0.05,   0.27,  -0.15,   0.01,   2.69, 9.57, 0.00, 0.00, 0.00, 0.00, 1, 1,  9,  38.3986075, -78.0643634,   136.0, 2023,  4, 16, 16, 52,  7,        0,        0,   0,   0,   1.9,   1.4,   1.2, 30,  0,  0,  0,  0,  0,  0, 28,  0,  0,  0,  0, 36, 28,  0,  0, 31,  0, 34,  0, 27,  0,  0,  0,  0,  0,  0,  0,  0, 23,  0,  0
6, 10923, 2,N0AHK,    -0.14, 3,   boost,   -0.49,  99375.00,  163.60,    0.00,    0.00, 35.5, 0.00, 0.00, 3.85,   9.91,  -0.29,   0.31,   0.12,  -0.10,  -0.14,   0.27,  -0.16,   0.01,   2.69, 9.57, 0.00, 0.00, 0.00, 0.00, 1, 1,  9,  38.3986075, -78.0643634,   136.0, 2023,  4, 16, 16, 52,  7,        0,        0,   0,   0,   1.9,   1.4,   1.2, 30,  0,  0,  0,  0,  0,  0, 28,  0,  0,  0,  0, 36, 28,  0,  0, 31,  0, 34,  0, 27,  0,  0,  0,  0,  0,  0,  0,  0, 23,  0,  0
6, 10923, 2,N0AHK,    -0.13, 3,   boost,   -0.49,  99373.00,  163.77,    0.17,    0.00, 35.5, 0.00, 0.00, 3.85,   9.86,  -0.33,   0.36,  -0.24,  -0.10,  -0.02,   0.26,  -0.15,   0.00,   2.69, 9.57, 0.00, 0.00, 0.00, 0.00, 1, 1,  9,  38.3986075, -78.0643634,   136.0, 2023,  4, 16, 16, 52,  7,        0,        0,   0,   0,   1.9,   1.4,   1.2, 30,  0,  0,  0,  0,  0,  0, 28,  0,  0,  0,  0, 36, 28,  0,  0, 31,  0, 34,  0, 27,  0,  0,  0,  0,  0,  0,  0,  0, 23,  0,  0
6, 10923, 2,N0AHK,    -0.12, 3,   boost,   -0.98,  99373.00,  163.77,    0.17,    0.00, 35.5, 0.00, 0.00, 3.85,   9.90,  -0.29,   0.29,  -0.12,  -0.10,   0.11,   0.27,  -0.16,   0.01,   2.69, 9.57, 0.00, 0.00, 0.00, 0.00, 1, 1,  9,  38.3986075, -78.0643634,   136.0, 2023,  4, 16, 16, 52,  7,        0,        0,   0,   0,   1.9,   1.4,   1.2, 30,  0,  0,  0,  0,  0,  0, 28,  0,  0,  0,  0, 36, 28,  0,  0, 31,  0, 34,  0, 27,  0,  0,  0,  0,  0,  0,  0,  0, 23,  0,  0
6, 10923, 2,N0AHK,    -0.11, 3,   boost,   -0.98,  99376.00,  163.52,   -0.08,    0.00, 35.5, 0.00, 0.00, 3.85,   9.89,  -0.32,   0.37,  -0.73,  -0.04,   0.29,   0.27,  -0.16,   0.01,   2.69, 9.57, 0.00, 0.00, 0.00, 0.00, 1, 1,  9,  38.3986075, -78.0643634,   136.0, 2023,  4, 16, 16, 52,  7,        0,        0,   0,   0,   1.9,   1.4,   1.2, 30,  0,  0,  0,  0,  0,  0, 28,  0,  0,  0,  0, 36, 28,  0,  0, 31,  0, 34,  0, 27,  0,  0,  0,  0,  0,  0,  0,  0, 23,  0,  0
6, 10923, 2,N0AHK,    -0.10, 3,   boost,   -0.00,  99376.00,  163.52,   -0.08,    0.00, 35.5, 0.00, 0.00, 3.85,   9.86,  -0.27,   0.37,  -0.55,  -0.22,  -0.02,   0.26,  -0.15,   0.00,   2.69, 9.57, 0.00, 0.00, 0.00, 0.00, 1, 1,  9,  38.3986075, -78.0643634,   136.0, 2023,  4, 16, 16, 52,  7,        0,        0,   0,   0,   1.9,   1.4,   1.2, 30,  0,  0,  0,  0,  0,  0, 28,  0,  0,  0,  0, 36, 28,  0,  0, 31,  0, 34,  0, 27,  0,  0,  0,  0,  0,  0,  0,  0, 23,  0,  0
6, 10923, 2,N0AHK,    -0.09, 3,   boost,   -0.00,  99379.00,  163.26,   -0.34,    0.02, 35.5, 0.00, 0.00, 3.85,   9.90,  -0.30,   0.36,  -0.43,  -0.16,   0.05,   0.26,  -0.15,   0.00,   2.69, 9.57, 0.00, 0.00, 0.00, 0.00, 1, 1,  9,  38.3986075, -78.0643634,   136.0, 2023,  4, 16, 16, 52,  7,        0,        0,   0,   0,   1.9,   1.4,   1.2, 30,  0,  0,  0,  0,  0,  0, 28,  0,  0,  0,  0, 36, 28,  0,  0, 31,  0, 34,  0, 27,  0,  0,  0,  0,  0,  0,  0,  0, 23,  0,  0
6, 10923, 2,N0AHK,    -0.08, 3,   boost,   -0.00,  99379.00,  163.26,   -0.34,    0.10, 35.5, 0.00, 0.00, 3.85,   9.90,  -0.18,   0.30,   0.00,  -0.16,  -0.02,   0.26,  -0.15,   0.00,   2.69, 9.57, 0.00, 0.00, 0.00, 0.00, 1, 1,  9,  38.3986075, -78.0643634,   136.0, 2023,  4, 16, 16, 52,  7,        0,        0,   0,   0,   1.9,   1.4,   1.2, 30,  0,  0,  0,  0,  0,  0, 28,  0,  0,  0,  0, 36, 28,  0,  0, 31,  0, 34,  0, 27,  0,  0,  0,  0,  0,  0,  0,  0, 23,  0,  0
6, 10923, 2,N0AHK,    -0.07, 3,   boost,   -0.00,  99371.00,  163.94,    0.34,    0.28, 35.5, 0.00, 0.00, 3.85,   9.85,  -0.73,   1.11,   0.00,  -0.22,   0.11,   0.26,  -0.15,   0.00,   2.69, 9.57, 0.00, 0.00, 0.00, 0.00, 1, 1,  9,  38.3986075, -78.0643634,   136.0, 2023,  4, 16, 16, 52,  7,        0,        0,   0,   0,   1.9,   1.4,   1.2, 30,  0,  0,  0,  0,  0,  0, 28,  0,  0,  0,  0, 36, 28,  0,  0, 31,  0, 34,  0, 27,  0,  0,  0,  0,  0,  0,  0,  0, 23,  0,  0
6, 10923, 2,N0AHK,    -0.06, 3,   boost,   29.91,  99371.00,  163.94,    0.34,    0.63, 35.5, 0.00, 0.00, 3.85,   9.94,   0.03,   0.09,  -0.18,  -0.04,  -0.02,   0.27,  -0.15,   0.01,   2.69, 9.57, 0.00, 0.00, 0.00, 0.00, 1, 1,  9,  38.3986075, -78.0643634,   136.0, 2023,  4, 16, 16, 52,  7,        0,        0,   0,   0,   1.9,   1.4,   1.2, 30,  0,  0,  0,  0,  0,  0, 28,  0,  0,  0,  0, 36, 28,  0,  0, 31,  0, 34,  0, 27,  0,  0,  0,  0,  0,  0,  0,  0, 23,  0,  0
6, 10923, 2,N0AHK,    -0.05, 3,   boost,   94.63,  99392.00,  162.16,   -1.44,    1.18, 35.5, 0.00, 0.00, 3.85,  17.10,  -0.19,   0.34,   0.12,   0.08,   0.17,   0.27,  -0.15,   0.00,   2.69, 9.57, 0.00, 0.00, 0.00, 0.00, 1, 1,  9,  38.3986075, -78.0643634,   136.0, 2023,  4, 16, 16, 52,  7,        0,        0,   0,   0,   1.9,   1.4,   1.2, 30,  0,  0,  0,  0,  0,  0, 28,  0,  0,  0,  0, 36, 28,  0,  0, 31,  0, 34,  0, 27,  0,  0,  0,  0,  0,  0,  0,  0, 23,  0,  0
6, 10923, 2,N0AHK,    -0.04, 3,   boost,  103.95,  99392.00,  162.16,   -1.44,    1.91, 35.5, 0.00, 0.00, 3.85, 100.54,  -1.35,  -1.49, -19.22,  -3.34,   8.35,   0.27,  -0.16,   0.00,   2.69, 9.57, 0.00, 0.00, 0.00, 0.00, 1, 1,  9,  38.3986075, -78.0643634,   136.0, 2023,  4, 16, 16, 52,  7,        0,        0,   0,   0,   1.9,   1.4,   1.2, 30,  0,  0,  0,  0,  0,  0, 28,  0,  0,  0,  0, 36, 28,  0,  0, 31,  0, 34,  0, 27,  0,  0,  0,  0,  0,  0,  0,  0, 23,  0,  0
6, 10923, 2,N0AHK,    -0.03, 3,   boost,   98.56,  99360.00,  164.87,    1.27,    2.77, 35.5, 0.00, 0.00, 3.85, 118.68,   3.78,   4.92,  -0.55,  -4.99, -12.04,   0.26,  -0.15,  -0.00,   2.69, 9.57, 0.00, 0.00, 0.00, 0.00, 1, 1,  9,  38.3986075, -78.0643634,   136.0, 2023,  4, 16, 16, 52,  7,        0,        0,   0,   0,   1.9,   1.4,   1.2, 30,  0,  0,  0,  0,  0,  0, 28,  0,  0,  0,  0, 36, 28,  0,  0, 31,  0, 34,  0, 27,  0,  0,  0,  0,  0,  0,  0,  0, 23,  0,  0
6, 10923, 2,N0AHK,    -0.02, 3,   boost,   97.09,  99360.00,  164.87,    1.27,    3.72, 35.5, 0.00, 0.00, 3.85, 111.06,  -6.49,  -6.66,  -7.99,  12.04,   3.65,   0.26,  -0.15,  -0.00,   2.69, 9.57, 0.00, 0.00, 0.00, 0.00, 1, 1,  9,  38.3986075, -78.0643634,   136.0, 2023,  4, 16, 16, 52,  7,        0,        0,   0,   0,   1.9,   1.4,   1.2, 30,  0,  0,  0,  0,  0,  0, 28,  0,  0,  0,  0, 36, 28,  0,  0, 31,  0, 34,  0, 27,  0,  0,  0,  0,  0,  0,  0,  0, 23,  0,  0
6, 10923, 2,N0AHK,    -0.01, 3,   boost,   96.11,  99344.00,  166.22,    2.62,    4.71, 35.5, 0.00, 0.00, 3.85, 110.68,   3.02,   8.68,  23.26,  14.06,   6.09,   0.27,  -0.15,  -0.00,   2.69, 9.57, 0.00, 0.00, 0.00, 0.00, 1, 1,  9,  38.3986075, -78.0643634,   136.0, 2023,  4, 16, 16, 52,  7,        0,        0,   0,   0,   1.9,   1.4,   1.2, 30,  0,  0,  0,  0,  0,  0, 28,  0,  0,  0,  0, 36, 28,  0,  0, 31,  0, 34,  0, 27,  0,  0,  0,  0,  0,  0,  0,  0, 23,  0,  0
6, 10923, 2,N0AHK,     0.00, 3,   boost,  103.46,  99344.00,  166.22,    2.62,    5.71, 35.5, 0.00, 0.00, 3.85, 105.60,  -7.83,  -0.32,  15.26,  -2.54,   2.24,   0.26,  -0.15,  -0.00,   2.69, 9.57, 0.00, 0.00, 0.00, 0.00, 1, 1,  9,  38.3986075, -78.0643634,   136.0, 2023,  4, 16, 16, 52,  7,        0,        0,   0,   0,   1.9,   1.4,   1.2, 30,  0,  0,  0,  0,  0,  0, 28,  0,  0,  0,  0, 36, 28,  0,  0, 31,  0, 34,  0, 27,  0,  0,  0,  0,  0,  0,  0,  0, 23,  0,  0
6, 10923, 2,N0AHK,     0.00, 3,   boost,  103.46,  99344.00,  166.22,    2.62,    5.71, 35.5, 0.00, 0.00, 3.85, 105.60,  -7.83,  -0.32,  15.26,  -2.54,   2.24,   0.26,  -0.15,  -0.00,   2.69, 9.57, 0.00, 0.00, 0.00, 0.00, 1, 1,  9,  38.3986075, -78.0643634,   136.0, 2023,  4, 16, 16, 52,  7,        0,        0,   0,   0,   1.9,   1.4,   1.2, 30,  0,  0,  0,  0,  0,  0, 28,  0,  0,  0,  0, 36, 28,  0,  0, 31,  0, 34,  0, 27,  0,  0,  0,  0,  0,  0,  0,  0, 23,  0,  0
6, 10923, 2,N0AHK,     0.00, 3,   boost,  103.46,  99344.00,  166.22,    2.62,    5.71, 35.5, 0.00, 0.00, 3.85, 105.60,  -7.83,  -0.32,  15.26,  -2.54,   2.24,   0.26,  -0.15,  -0.00,   2.69, 9.57, 0.00, 0.00, 0.00, 0.00, 1, 1,  9,  38.3986075, -78.0643634,   136.0, 2023,  4, 16, 16, 52,  7,        0,        0,   0,   0,   1.9,   1.4,   1.2, 30,  0,  0,  0,  0,  0,  0, 28,  0,  0,  0,  0, 36, 28,  0,  0, 31,  0, 34,  0, 27,  0,  0,  0,  0,  0,  0,  0,  0, 23,  0,  0
6, 10923, 2,N0AHK,     0.00, 3,   boost,  103.46,  99344.00,  166.22,    2.62,    5.71, 35.5, 0.00, 0.00, 3.85, 105.60,  -7.83,  -0.32,  15.26,  -2.54,   2.24,   0.26,  -0.15,  -0.00,   2.69, 9.57, 0.00, 0.00, 0.00, 0.00, 1, 1,  9,  38.3986075, -78.0643634,   136.0, 2023,  4, 16, 16, 52,  7,        0,        0,   0,   0,   1.9,   1.4,   1.2, 30,  0,  0,  0,  0,  0,  0, 28,  0,  0,  0,  0, 36, 28,  0,  0, 31,  0, 34,  0, 27,  0,  0,  0,  0,  0,  0,  0,  0, 23,  0,  0
6, 10923, 2,N0AHK,     0.00, 3,   boost,  103.46,  99344.00,  166.22,    2.62,    5.71, 35.5, 0.00, 0.00, 3.85, 105.60,  -7.83,  -0.32,  15.26,  -2.54,   2.24,   0.26,  -0.15,  -0.00,   2.69, 9.57, 0.00, 0.00, 0.00, 0.00, 1, 1,  9,  38.3986075, -78.0643634,   136.0, 2023,  4, 16, 16, 52,  7,        0,        0,   0,   0,   1.9,   1.4,   1.2, 30,  0,  0,  0,  0,  0,  0, 28,  0,  0,  0,  0, 36, 28,  0,  0, 31,  0, 34,  0, 27,  0,  0,  0,  0,  0,  0,  0,  0, 23,  0,  0
6, 10923, 2,N0AHK,     0.00, 3,   boost,  103.46,  99344.00,  166.22,    2.62,    5.71, 35.5, 0.00, 0.00, 3.85, 105.60,  -7.83,  -0.32,  15.26,  -2.54,   2.24,   0.26,  -0.15,  -0.00,   2.69, 9.57, 0.00, 0.00, 0.00, 0.00, 1, 1,  9,  38.3986075, -78.0643634,   136.0, 2023,  4, 16, 16, 52,  7,        0,        0,   0,   0,   1.9,   1.4,   1.2, 30,  0,  0,  0,  0,  0,  0, 28,  0,  0,  0,  0, 36, 28,  0,  0, 31,  0, 34,  0, 27,  0,  0,  0,  0,  0,  0,  0,  0, 23,  0,  0
6, 10923, 2,N0AHK,     0.00, 3,   boost,  103.46,  99344.00,  166.22,    2.62,    5.71, 35.5, 0.00, 0.00, 3.85, 105.60,  -7.83,  -0.32,  15.26,  -2.54,   2.24,   0.26,  -0.15,  -0.00,   2.69, 9.57, 0.00, 0.00, 0.00, 0.00, 1, 1,  9,  38.3986075, -78.0643634,   136.0, 2023,  4, 16, 16, 52,  7,        0,        0,   0,   0,   1.9,   1.4,   1.2, 30,  0,  0,  0,  0,  0,  0, 28,  0,  0,  0,  0, 36, 28,  0,  0, 31,  0, 34,  0, 27,  0,  0,  0,  0,  0,  0,  0,  0, 23,  0,  0
6, 10923, 2,N0AHK,     0.00, 3,   boost,  103.46,  99344.00,  166.22,    2.62,    5.71, 35.5, 0.00, 0.00, 3.85, 105.60,  -7.83,  -0.32,  15.26,  -2.54,   2.24,   0.26,  -0.15,  -0.00,   2.69, 9.57, 0.00, 0.00, 0.00, 0.00, 1, 1,  9,  38.3986075, -78.0643634,   136.0, 2023,  4, 16, 16, 52,  7,        0,        0,   0,   0,   1.9,   1.4,   1.2, 30,  0,  0,  0,  0,  0,  0, 28,  0,  0,  0,  0, 36, 28,  0,  0, 31,  0, 34,  0, 27,  0,  0,  0,  0,  0,  0,  0,  0, 23,  0,  0
6, 10923, 2,N0AHK,     0.00, 3,   boost,  103.46,  99344.00,  166.22,    2.62,    5.71, 35.5, 0.00, 0.00, 3.85, 105.60,  -7.83,  -0.32,  15.26,  -2.54,   2.24,   0.26,  -0.15,  -0.00,   2.69, 9.57, 0.00, 0.00, 0.00, 0.00, 1, 1,  9,  38.3986075, -78.0643634,   136.0, 2023,  4, 16, 16, 52,  7,        0,        0,   0,   0,   1.9,   1.4,   1.2, 30,  0,  0,  0,  0,  0,  0, 28,  0,  0,  0,  0, 36, 28,  0,  0, 31,  0, 34,  0, 27,  0,  0,  0,  0,  0,  0,  0,  0, 23,  0,  0
6, 10923, 2,N0AHK,     0.00, 3,   boost,  103.46,  99344.00,  166.22,    2.62,    5.71, 35.5, 0.00, 0.00, 3.85, 105.60,  -7.83,  -0.32,  15.26,  -2.54,   2.24,   0.26,  -0.15,  -0.00,   2.70, 9.57, 0.00, 0.00, 0.00, 0.00, 1, 1,  9,  38.3986075, -78.0643634,   136.0, 2023,  4, 16, 16, 52,  7,        0,        0,   0,   0,   1.9,   1.4,   1.2, 30,  0,  0,  0,  0,  0,  0, 28,  0,  0,  0,  0, 36, 28,  0,  0, 31,  0, 34,  0, 27,  0,  0,  0,  0,  0,  0,  0,  0, 23,  0,  0
6, 10923, 2,N0AHK,     0.00, 3,   boost,  103.46,  99344.00,  166.22,    2.62,    5.71, 35.5, 0.00, 0.00, 3.85, 105.60,  -7.83,  -0.32,  15.26,  -2.54,   2.24,   0.26,  -0.15,  -0.00,   2.70, 9.57, 0.00, 0.00, 0.00, 0.00, 1, 1,  9,  38.3986075, -78.0643634,   136.0, 2023,  4, 16, 16, 52,  7,        0,        0,   0,   0,   1.9,   1.4,   1.2, 30,  0,  0,  0,  0,  0,  0, 28,  0,  0,  0,  0, 36, 28,  0,  0, 31,  0, 34,  0, 27,  0,  0,  0,  0,  0,  0,  0,  0, 23,  0,  0
6, 10923, 2,N0AHK,     0.00, 3,   boost,  103.46,  99344.00,  166.22,    2.62,    5.71, 35.5, 0.00, 0.00, 3.85, 105.60,  -7.83,  -0.32,  15.26,  -2.54,   2.24,   0.26,  -0.15,  -0.00,   2.69, 9.57, 0.00, 0.00, 0.00, 0.00, 1, 1,  9,  38.3986075, -78.0643634,   136.0, 2023,  4, 16, 16, 52,  7,        0,        0,   0,   0,   1.9,   1.4,   1.2, 30,  0,  0,  0,  0,  0,  0, 28,  0,  0,  0,  0, 36, 28,  0,  0, 31,  0, 34,  0, 27,  0,  0,  0,  0,  0,  0,  0,  0, 23,  0,  0
6, 10923, 2,N0AHK,     0.00, 3,   boost,  103.46,  99344.00,  166.22,    2.62,    5.71, 35.5, 0.00, 0.00, 3.85, 105.60,  -7.83,  -0.32,  15.26,  -2.54,   2.24,   0.26,  -0.15,  -0.00,   2.69, 9.57, 0.00, 0.00, 0.00, 0.00, 1, 1,  9,  38.3986075, -78.0643634,   136.0, 2023,  4, 16, 16, 52,  7,        0,        0,   0,   0,   1.9,   1.4,   1.2, 30,  0,  0,  0,  0,  0,  0, 28,  0,  0,  0,  0, 36, 28,  0,  0, 31,  0, 34,  0, 27,  0,  0,  0,  0,  0,  0,  0,  0, 23,  0,  0
6, 10923, 2,N0AHK,     0.00, 3,   boost,  103.46,  99344.00,  166.22,    2.62,    5.71, 35.5, 0.00, 0.00, 3.85, 105.60,  -7.83,  -0.32,  15.26,  -2.54,   2.24,   0.26,  -0.15,  -0.00,   2.69, 9.57, 0.00, 0.00, 0.00, 0.00, 1, 1,  9,  38.3986075, -78.0643634,   136.0, 2023,  4, 16, 16, 52,  7,        0,        0,   0,   0,   1.9,   1.4,   1.2, 30,  0,  0,  0,  0,  0,  0, 28,  0,  0,  0,  0, 36, 28,  0,  0, 31,  0, 34,  0, 27,  0,  0,  0,  0,  0,  0,  0,  0, 23,  0,  0
6, 10923, 2,N0AHK,     0.00, 3,   boost,  103.46,  99344.00,  166.22,    2.62,    5.71, 35.5, 0.00, 0.00, 3.85, 105.60,  -7.83,  -0.32,  15.26,  -2.54,   2.24,   0.26,  -0.15,  -0.00,   2.69, 9.57, 0.00, 0.00, 0.00, 0.00, 1, 1,  9,  38.3986075, -78.0643634,   136.0, 2023,  4, 16, 16, 52,  7,        0,        0,   0,   0,   1.9,   1.4,   1.2, 30,  0,  0,  0,  0,  0,  0, 28,  0,  0,  0,  0, 36, 28,  0,  0, 31,  0, 34,  0, 27,  0,  0,  0,  0,  0,  0,  0,  0, 23,  0,  0
6, 10923, 2,N0AHK,     0.00, 3,   boost,  103.46,  99344.00,  166.22,    2.62,    5.71, 35.5, 0.00, 0.00, 3.85, 105.60,  -7.83,  -0.32,  15.26,  -2.54,   2.24,   0.26,  -0.15,  -0.00,   2.69, 9.57, 0.00, 0.00, 0.00, 0.00, 1, 1,  9,  38.3986075, -78.0643634,   136.0, 2023,  4, 16, 16, 52,  7,        0,        0,   0,   0,   1.9,   1.4,   1.2, 30,  0,  0,  0,  0,  0,  0, 28,  0,  0,  0,  0, 36, 28,  0,  0, 31,  0, 34,  0, 27,  0,  0,  0,  0,  0,  0,  0,  0, 23,  0,  0
6, 10923, 2,N0AHK,     0.00, 3,   boost,  103.46,  99344.00,  166.22,    2.62,    5.71, 35.5, 0.00, 0.00, 3.85, 105.60,  -7.83,  -0.32,  15.26,  -2.54,   2.24,   0.26,  -0.15,  -0.00,   2.70, 9.57, 0.00, 0.00, 0.00, 0.00, 1, 1,  9,  38.3986075, -78.0643634,   136.0, 2023,  4, 16, 16, 52,  7,        0,        0,   0,   0,   1.9,   1.4,   1.2, 30,  0,  0,  0,  0,  0,  0, 28,  0,  0,  0,  0, 36, 28,  0,  0, 31,  0, 34,  0, 27,  0,  0,  0,  0,  0,  0,  0,  0, 23,  0,  0
6, 10923, 2,N0AHK,     0.00, 3,   boost,  103.46,  99344.00,  166.22,    2.62,    5.71, 35.5, 0.00, 0.00, 3.85, 105.60,  -7.83,  -0.32,  15.26,  -2.54,   2.24,   0.26,  -0.15,  -0.00,   2.70, 9.57, 0.00, 0.00, 0.00, 0.00, 1, 1,  9,  38.3986075, -78.0643634,   136.0, 2023,  4, 16, 16, 52,  7,        0,        0,   0,   0,   1.9,   1.4,   1.2, 30,  0,  0,  0,  0,  0,  0, 28,  0,  0,  0,  0, 36, 28,  0,  0, 31,  0, 34,  0, 27,  0,  0,  0,  0,  0,  0,  0,  0, 23,  0,  0
6, 10923, 2,N0AHK,     0.00, 3,   boost,  103.46,  99344.00,  166.22,    2.62,    5.71, 35.5, 0.00, 0.00, 3.85, 105.60,  -7.83,  -0.32,  15.26,  -2.54,   2.24,   0.26,  -0.15,  -0.00,   2.70, 9.57, 0.00, 0.00, 0.00, 0.00, 1, 1,  9,  38.3986075, -78.0643634,   136.0, 2023,  4, 16, 16, 52,  7,        0,        0,   0,   0,   1.9,   1.4,   1.2, 30,  0,  0,  0,  0,  0,  0, 28,  0,  0,  0,  0, 36, 28,  0,  0, 31,  0, 34,  0, 27,  0,  0,  0,  0,  0,  0,  0,  0, 23,  0,  0
6, 10923, 2,N0AHK,     0.00, 3,   boost,  103.46,  99344.00,  166.22,    2.62,    5.71, 35.5, 0.00, 0.00, 3.85, 105.60,  -7.83,  -0.32,  15.26,  -2.54,   2.24,   0.26,  -0.15,  -0.00,   2.70, 9.57, 0.00, 0.00, 0.00, 0.00, 1, 1,  9,  38.3986075, -78.0643634,   136.0, 2023,  4, 16, 16, 52,  7,        0,        0,   0,   0,   1.9,   1.4,   1.2, 30,  0,  0,  0,  0,  0,  0, 28,  0,  0,  0,  0, 36, 28,  0,  0, 31,  0, 34,  0, 27,  0,  0,  0,  0,  0,  0,  0,  0, 23,  0,  0
6, 10923, 2,N0AHK,     0.00, 3,   boost,  103.46,  99344.00,  166.22,    2.62,    5.71, 35.5, 0.00, 0.00, 3.85, 105.60,  -7.83,  -0.32,  15.26,  -2.54,   2.24,   0.26,  -0.15,  -0.00,   2.70, 9.57, 0.00, 0.00, 0.00, 0.00, 1, 1,  9,  38.3986075, -78.0643634,   136.0, 2023,  4, 16, 16, 52,  7,        0,        0,   0,   0,   1.9,   1.4,   1.2, 30,  0,  0,  0,  0,  0,  0, 28,  0,  0,  0,  0, 36, 28,  0,  0, 31,  0, 34,  0, 27,  0,  0,  0,  0,  0,  0,  0,  0, 23,  0,  0
6, 10923, 2,N0AHK,     0.00, 3,   boost,  103.46,  99344.00,  166.22,    2.62,    5.71, 35.5, 0.00, 0.00, 3.85, 105.60,  -7.83,  -0.32,  15.26,  -2.54,   2.24,   0.26,  -0.15,  -0.00,   2.70, 9.57, 0.00, 0.00, 0.00, 0.00, 1, 1,  9,  38.3986075, -78.0643634,   136.0, 2023,  4, 16, 16, 52,  7,        0,        0,   0,   0,   1.9,   1.4,   1.2, 30,  0,  0,  0,  0,  0,  0, 28,  0,  0,  0,  0, 36, 28,  0,  0, 31,  0, 34,  0, 27,  0,  0,  0,  0,  0,  0,  0,  0, 23,  0,  0
6, 10923, 2,N0AHK,     0.00, 3,   boost,  103.46,  99344.00,  166.22,    2.62,    5.71, 35.5, 0.00, 0.00, 3.85, 105.60,  -7.83,  -0.32,  15.26,  -2.54,   2.24,   0.26,  -0.15,  -0.00,   2.70, 9.57, 0.00, 0.00, 0.00, 0.00, 1, 1,  9,  38.3986075, -78.0643634,   136.0, 2023,  4, 16, 16, 52,  7,        0,        0,   0,   0,   1.9,   1.4,   1.2, 30,  0,  0,  0,  0,  0,  0, 28,  0,  0,  0,  0, 36, 28,  0,  0, 31,  0, 34,  0, 27,  0,  0,  0,  0,  0,  0,  0,  0, 23,  0,  0
6, 10923, 2,N0AHK,     0.00, 3,   boost,  103.46,  99344.00,  166.22,    2.62,    5.71, 35.5, 0.00, 0.00, 3.85, 105.60,  -7.83,  -0.32,  15.26,  -2.54,   2.24,   0.26,  -0.15,  -0.00,   2.70, 9.57, 0.00, 0.00, 0.00, 0.00, 1, 1,  9,  38.3986075, -78.0643634,   136.0, 2023,  4, 16, 16, 52,  7,        0,        0,   0,   0,   1.9,   1.4,   1.2, 30,  0,  0,  0,  0,  0,  0, 28,  0,  0,  0,  0, 36, 28,  0,  0, 31,  0, 34,  0, 27,  0,  0,  0,  0,  0,  0,  0,  0, 23,  0,  0
6, 10923, 2,N0AHK,     0.00, 3,   boost,  103.46,  99344.00,  166.22,    2.62,    5.71, 35.5, 0.00, 0.00, 3.85, 105.60,  -7.83,  -0.32,  15.26,  -2.54,   2.24,   0.26,  -0.15,  -0.00,   2.70, 9.57, 0.00, 0.00, 0.00, 0.00, 1, 1,  9,  38.3986075, -78.0643634,   136.0, 2023,  4, 16, 16, 52,  7,        0,        0,   0,   0,   1.9,   1.4,   1.2, 30,  0,  0,  0,  0,  0,  0, 28,  0,  0,  0,  0, 36, 28,  0,  0, 31,  0, 34,  0, 27,  0,  0,  0,  0,  0,  0,  0,  0, 23,  0,  0
6, 10923, 2,N0AHK,     0.00, 3,   boost,  103.46,  99344.00,  166.22,    2.62,    5.71, 35.5, 0.00, 0.00, 3.85, 105.60,  -7.83,  -0.32,  15.26,  -2.54,   2.24,   0.26,  -0.15,  -0.00,   2.70, 9.57, 0.00, 0.00, 0.00, 0.00, 1, 1,  9,  38.3986075, -78.0643634,   136.0, 2023,  4, 16, 16, 52,  7,        0,        0,   0,   0,   1.9,   1.4,   1.2, 30,  0,  0,  0,  0,  0,  0, 28,  0,  0,  0,  0, 36, 28,  0,  0, 31,  0, 34,  0, 27,  0,  0,  0,  0,  0,  0,  0,  0, 23,  0,  0
6, 10923, 2,N0AHK,     0.00, 3,   boost,  103.46,  99344.00,  166.22,    2.62,    5.71, 35.5, 0.00, 0.00, 3.85, 105.60,  -7.83,  -0.32,  15.26,  -2.54,   2.24,   0.26,  -0.15,  -0.00,   2.70, 9.57, 0.00, 0.00, 0.00, 0.00, 1, 1,  9,  38.3986075, -78.0643634,   136.0, 2023,  4, 16, 16, 52,  7,        0,        0,   0,   0,   1.9,   1.4,   1.2, 30,  0,  0,  0,  0,  0,  0, 28,  0,  0,  0,  0, 36, 28,  0,  0, 31,  0, 34,  0, 27,  0,  0,  0,  0,  0,  0,  0,  0, 23,  0,  0
6, 10923, 2,N0AHK,     0.00, 3,   boost,  103.46,  99344.00,  166.22,    2.62,    5.71, 35.5, 0.00, 0.00, 3.85, 105.60,  -7.83,  -0.32,  15.26,  -2.54,   2.24,   0.26,  -0.15,  -0.00,   2.70, 9.57, 0.00, 0.00, 0.00, 0.00, 1, 1,  9,  38.3986075, -78.0643634,   136.0, 2023,  4, 16, 16, 52,  7,        0,        0,   0,   0,   1.9,   1.4,   1.2, 30,  0,  0,  0,  0,  0,  0, 28,  0,  0,  0,  0, 36, 28,  0,  0, 31,  0, 34,  0, 27,  0,  0,  0,  0,  0,  0,  0,  0, 23,  0,  0
6, 10923, 2,N0AHK,     0.00, 3,   boost,  103.46,  99344.00,  166.22,    2.62,    5.71, 35.5, 0.00, 0.00, 3.85, 105.60,  -7.83,  -0.32,  15.26,  -2.54,   2.24,   0.26,  -0.15,  -0.00,   2.70, 9.57, 0.00, 0.00, 0.00, 0.00, 1, 1,  9,  38.3986075, -78.0643634,   136.0, 2023,  4, 16, 16, 52,  7,        0,        0,   0,   0,   1.9,   1.4,   1.2, 30,  0,  0,  0,  0,  0,  0, 28,  0,  0,  0,  0, 36, 28,  0,  0, 31,  0, 34,  0, 27,  0,  0,  0,  0,  0,  0,  0,  0, 23,  0,  0
6, 10923, 2,N0AHK,     0.00, 3,   boost,  103.46,  99344.00,  166.22,    2.62,    5.71, 35.5, 0.00, 0.00, 3.85, 105.60,  -7.83,  -0.32,  15.26,  -2.54,   2.24,   0.26,  -0.15,  -0.00,   2.70, 9.57, 0.00, 0.00, 0.00, 0.00, 1, 1,  9,  38.3986075, -78.0643634,   136.0, 2023,  4, 16, 16, 52,  7,        0,        0,   0,   0,   1.9,   1.4,   1.2, 30,  0,  0,  0,  0,  0,  0, 28,  0,  0,  0,  0, 36, 28,  0,  0, 31,  0, 34,  0, 27,  0,  0,  0,  0,  0,  0,  0,  0, 23,  0,  0
6, 10923, 2,N0AHK,     0.00, 3,   boost,  103.46,  99344.00,  166.22,    2.62,    5.71, 35.5, 0.00, 0.00, 3.85, 105.60,  -7.83,  -0.32,  15.26,  -2.54,   2.24,   0.26,  -0.15,  -0.00,   2.70, 9.57, 0.00, 0.00, 0.00, 0.00, 1, 1,  9,  38.3986075, -78.0643634,   136.0, 2023,  4, 16, 16, 52,  7,        0,        0,   0,   0,   1.9,   1.4,   1.2, 30,  0,  0,  0,  0,  0,  0, 28,  0,  0,  0,  0, 36, 28,  0,  0, 31,  0, 34,  0, 27,  0,  0,  0,  0,  0,  0,  0,  0, 23,  0,  0
6, 10923, 2,N0AHK,     0.00, 3,   boost,  103.46,  99344.00,  166.22,    2.62,    5.71, 35.5, 0.00, 0.00, 3.85, 105.60,  -7.83,  -0.32,  15.26,  -2.54,   2.24,   0.26,  -0.15,  -0.00,   2.70, 9.57, 0.00, 0.00, 0.00, 0.00, 1, 1,  9,  38.3986075, -78.0643634,   136.0, 2023,  4, 16, 16, 52,  7,        0,        0,   0,   0,   1.9,   1.4,   1.2, 30,  0,  0,  0,  0,  0,  0, 28,  0,  0,  0,  0, 36, 28,  0,  0, 31,  0, 34,  0, 27,  0,  0,  0,  0,  0,  0,  0,  0, 23,  0,  0
6, 10923, 2,N0AHK,     0.00, 3,   boost,  103.46,  99344.00,  166.22,    2.62,    5.71, 35.5, 0.00, 0.00, 3.85, 105.60,  -7.83,  -0.32,  15.26,  -2.54,   2.24,   0.26,  -0.15,  -0.00,   2.68, 9.57, 0.00, 0.00, 0.00, 0.00, 1, 1,  9,  38.3986075, -78.0643634,   136.0, 2023,  4, 16, 16, 52,  7,        0,        0,   0,   0,   1.9,   1.4,   1.2, 30,  0,  0,  0,  0,  0,  0, 28,  0,  0,  0,  0, 36, 28,  0,  0, 31,  0, 34,  0, 27,  0,  0,  0,  0,  0,  0,  0,  0, 23,  0,  0
6, 10923, 2,N0AHK,     0.00, 3,   boost,  103.46,  99344.00,  166.22,    2.62,    5.71, 35.5, 0.00, 0.00, 3.85, 105.60,  -7.83,  -0.32,  15.26,  -2.54,   2.24,   0.26,  -0.15,  -0.00,   2.79, 9.57, 0.00, 0.00, 0.00, 0.00, 1, 1,  9,  38.3986075, -78.0643634,   136.0, 2023,  4, 16, 16, 52,  7,        0,        0,   0,   0,   1.9,   1.4,   1.2, 30,  0,  0,  0,  0,  0,  0, 28,  0,  0,  0,  0, 36, 28,  0,  0, 31,  0, 34,  0, 27,  0,  0,  0,  0,  0,  0,  0,  0, 23,  0,  0
6, 10923, 2,N0AHK,     0.00, 3,   boost,  103.46,  99344.00,  166.22,    2.62,    5.71, 35.5, 0.00, 0.00, 3.85, 105.60,  -7.83,  -0.32,  15.26,  -2.54,   2.24,   0.26,  -0.15,  -0.00,   2.67, 9.57, 0.00, 0.00, 0.00, 0.00, 1, 1,  9,  38.3986075, -78.0643634,   136.0, 2023,  4, 16, 16, 52,  7,        0,        0,   0,   0,   1.9,   1.4,   1.2, 30,  0,  0,  0,  0,  0,  0, 28,  0,  0,  0,  0, 36, 28,  0,  0, 31,  0, 34,  0, 27,  0,  0,  0,  0,  0,  0,  0,  0, 23,  0,  0
6, 10923, 2,N0AHK,     0.00, 3,   boost,  103.46,  99344.00,  166.22,    2.62,    5.71, 35.5, 0.00, 0.00, 3.85, 105.60,  -7.83,  -0.32,  15.26,  -2.54,   2.24,   0.26,  -0.15,  -0.00,   2.53, 9.57, 0.00, 0.00, 0.00, 0.00, 1, 1,  9,  38.3986075, -78.0643634,   136.0, 2023,  4, 16, 16, 52,  7,        0,        0,   0,   0,   1.9,   1.4,   1.2, 30,  0,  0,  0,  0,  0,  0, 28,  0,  0,  0,  0, 36, 28,  0,  0, 31,  0, 34,  0, 27,  0,  0,  0,  0,  0,  0,  0,  0, 23,  0,  0
6, 10923, 2,N0AHK,     0.00, 3,   boost,  103.46,  99344.00,  166.22,    2.62,    5.71, 35.5, 0.00, 0.00, 3.85, 105.60,  -7.83,  -0.32,  15.26,  -2.54,   2.24,   0.26,  -0.15,  -0.00,   2.53, 9.57, 0.00, 0.00, 0.00, 0.00, 1, 1,  9,  38.3986075, -78.0643634,   136.0, 2023,  4, 16, 16, 52,  7,        0,        0,   0,   0,   1.9,   1.4,   1.2, 30,  0,  0,  0,  0,  0,  0, 28,  0,  0,  0,  0, 36, 28,  0,  0, 31,  0, 34,  0, 27,  0,  0,  0,  0,  0,  0,  0,  0, 23,  0,  0
6, 10923, 2,N0AHK,     0.01, 3,   boost,  102.48,  99346.00,  166.05,    2.45,    6.72, 35.5, 0.00, 0.00, 3.85, 113.58,  19.33,   5.86, -69.64,   6.18,  11.09,   0.26,  -0.15,  -0.00,   2.41, 9.57, 0.00, 0.00, 0.00, 0.00, 1, 1,  9,  38.3986075, -78.0643634,   136.0, 2023,  4, 16, 16, 52,  7,        0,        0,   0,   0,   1.9,   1.4,   1.2, 30,  0,  0,  0,  0,  0,  0, 28,  0,  0,  0,  0, 36, 28,  0,  0, 31,  0, 34,  0, 27,  0,  0,  0,  0,  0,  0,  0,  0, 23,  0,  0
6, 10923, 2,N0AHK,     0.01, 3,   boost,  102.48,  99346.00,  166.05,    2.45,    6.72, 35.5, 0.00, 0.00, 3.85, 113.58,  19.33,   5.86, -69.64,   6.18,  11.09,   0.26,  -0.15,  -0.00,   2.41, 9.57, 0.00, 0.00, 0.00, 0.00, 1, 1,  9,  38.3986075, -78.0643634,   136.0, 2023,  4, 16, 16, 52,  7,        0,        0,   0,   0,   1.9,   1.4,   1.2, 30,  0,  0,  0,  0,  0,  0, 28,  0,  0,  0,  0, 36, 28,  0,  0, 31,  0, 34,  0, 27,  0,  0,  0,  0,  0,  0,  0,  0, 23,  0,  0
6, 10923, 2,N0AHK,     0.02, 3,   boost,  101.99,  99346.00,  166.05,    2.45,    7.75, 35.5, 0.00, 0.00, 3.83, 112.26,   1.30,   3.59, -46.38,   3.38,   9.38,   0.27,  -0.16,  -0.01,   2.33, 9.60, 0.00, 0.00, 0.00, 0.00, 1, 1,  9,  38.3986075, -78.0643634,   136.0, 2023,  4, 16, 16, 52,  7,        0,        0,   0,   0,   1.9,   1.4,   1.2, 30,  0,  0,  0,  0,  0,  0, 28,  0,  0,  0,  0, 36, 28,  0,  0, 31,  0, 34,  0, 27,  0,  0,  0,  0,  0,  0,  0,  0, 23,  0,  0
6, 10923, 2,N0AHK,     0.02, 3,   boost,  101.99,  99346.00,  166.05,    2.45,    7.75, 35.5, 0.00, 0.00, 3.83, 112.26,   1.30,   3.59, -46.38,   3.38,   9.38,   0.27,  -0.16,  -0.01,   2.33, 9.60, 0.00, 0.00, 0.00, 0.00, 1, 1,  9,  38.3986075, -78.0643634,   136.0, 2023,  4, 16, 16, 52,  7,        0,        0,   0,   0,   1.9,   1.4,   1.2, 30,  0,  0,  0,  0,  0,  0, 28,  0,  0,  0,  0, 36, 28,  0,  0, 31,  0, 34,  0, 27,  0,  0,  0,  0,  0,  0,  0,  0, 23,  0,  0
6, 10923, 2,N0AHK,     0.03, 3,   boost,  105.42,  99356.00,  165.21,    1.61,    8.79, 35.5, 0.00, 0.00, 3.83, 111.26,  -6.73,   8.06, -20.63,   2.40,   4.07,   0.26,  -0.16,  -0.01,   2.29, 9.60, 0.00, 0.00, 0.00, 0.00, 1, 1,  9,  38.3986075, -78.0643634,   136.0, 2023,  4, 16, 16, 52,  7,        0,        0,   0,   0,   1.9,   1.4,   1.2, 30,  0,  0,  0,  0,  0,  0, 28,  0,  0,  0,  0, 36, 28,  0,  0, 31,  0, 34,  0, 27,  0,  0,  0,  0,  0,  0,  0,  0, 23,  0,  0
6, 10923, 2,N0AHK,     0.04, 3,   boost,  106.40,  99356.00,  165.21,    1.61,    9.83, 35.5, 0.00, 0.00, 3.83, 114.41,  -6.74,   2.95,  25.39,   1.79,  -0.75,   0.26,  -0.16,  -0.01,   2.27, 9.60, 0.00, 0.00, 0.00, 0.00, 1, 1,  9,  38.3986075, -78.0643634,   136.0, 2023,  4, 16, 16, 52,  7,        0,        0,   0,   0,   1.9,   1.4,   1.2, 30,  0,  0,  0,  0,  0,  0, 28,  0,  0,  0,  0, 36, 28,  0,  0, 31,  0, 34,  0, 27,  0,  0,  0,  0,  0,  0,  0,  0, 23,  0,  0
6, 10923, 2,N0AHK,     0.05, 3,   boost,  105.42,  99357.00,  165.12,    1.52,   10.87, 35.5, 0.00, 0.00, 3.83, 115.82,  11.66,   4.74,  27.28,  -2.30,  -4.10,   0.27,  -0.16,  -0.00,   2.32, 9.60, 0.00, 0.00, 0.00, 0.00, 1, 1,  9,  38.3986075, -78.0643634,   136.0, 2023,  4, 16, 16, 52,  7,        0,        0,   0,   0,   1.9,   1.4,   1.2, 30,  0,  0,  0,  0,  0,  0, 28,  0,  0,  0,  0, 36, 28,  0,  0, 31,  0, 34,  0, 27,  0,  0,  0,  0,  0,  0,  0,  0, 23,  0,  0
6, 10923, 2,N0AHK,     0.06, 3,   boost,  103.46,  99357.00,  165.12,    1.52,   11.92, 35.5, 0.00, 0.00, 3.83, 115.26,  -0.67,   0.90, -28.14,  -1.63,  -1.60,   0.26,  -0.16,  -0.01,   2.34, 9.60, 0.00, 0.00, 0.00, 0.00, 1, 1,  9,  38.3986075, -78.0643634,   136.0, 2023,  4, 16, 16, 52,  7,        0,        0,   0,   0,   1.9,   1.4,   1.2, 30,  0,  0,  0,  0,  0,  0, 28,  0,  0,  0,  0, 36, 28,  0,  0, 31,  0, 34,  0, 27,  0,  0,  0,  0,  0,  0,  0,  0, 23,  0,  0
6, 10923, 2,N0AHK,     0.07, 3,   boost,  103.46,  99362.00,  164.70,    1.10,   12.96, 35.5, 0.00, 0.00, 3.83, 115.54,   6.21,   0.83, -36.01,  -0.65,  -1.05,   0.26,  -0.16,  -0.01,   2.35, 9.60, 0.00, 0.00, 0.00, 0.00, 1, 1,  9,  38.3986075, -78.0643634,   136.0, 2023,  4, 16, 16, 52,  7,        0,        0,   0,   0,   1.9,   1.4,   1.2, 30,  0,  0,  0,  0,  0,  0, 28,  0,  0,  0,  0, 36, 28,  0,  0, 31,  0, 34,  0, 27,  0,  0,  0,  0,  0,  0,  0,  0, 23,  0,  0
6, 10923, 2,N0AHK,     0.08, 3,   boost,  104.44,  99362.00,  164.70,    1.10,   14.00, 35.5, 0.00, 0.00, 3.83, 114.89,  -7.85,  -3.43, -28.01,   2.58,   0.29,   0.27,  -0.16,  -0.01,   2.33, 9.60, 0.00, 0.00, 0.00, 0.00, 1, 1,  9,  38.3986075, -78.0643634,   136.0, 2023,  4, 16, 16, 52,  7,        0,        0,   0,   0,   1.9,   1.4,   1.2, 30,  0,  0,  0,  0,  0,  0, 28,  0,  0,  0,  0, 36, 28,  0,  0, 31,  0, 34,  0, 27,  0,  0,  0,  0,  0,  0,  0,  0, 23,  0,  0
6, 10923, 2,N0AHK,     0.09, 3,   boost,  100.03,  99347.00,  165.97,    2.37,   15.04, 35.5, 0.00, 0.00, 3.83, 115.60,  12.13,   3.90,  24.11,  -4.68,   1.33,   0.27,  -0.16,  -0.01,   2.36, 9.60, 0.00, 0.00, 0.00, 0.00, 1, 1,  9,  38.3986075, -78.0643634,   136.0, 2023,  4, 16, 16, 52,  7,        0,        0,   0,   0,   1.9,   1.4,   1.2, 30,  0,  0,  0,  0,  0,  0, 28,  0,  0,  0,  0, 36, 28,  0,  0, 31,  0, 34,  0, 27,  0,  0,  0,  0,  0,  0,  0,  0, 23,  0,  0
6, 10923, 2,N0AHK,     0.10, 3,   boost,  109.83,  99347.00,  165.97,    2.37,   16.09, 35.5, 0.00, 0.00, 3.83, 118.05,  -8.24,   0.01,  32.78,  -4.92,   2.85,   0.26,  -0.16,  -0.00,   2.38, 9.60, 0.00, 0.00, 0.00, 0.00, 1, 1,  9,  38.3986075, -78.0643634,   136.0, 2023,  4, 16, 16, 52,  7,        0,        0,   0,   0,   1.9,   1.4,   1.2, 30,  0,  0,  0,  0,  0,  0, 28,  0,  0,  0,  0, 36, 28,  0,  0, 31,  0, 34,  0, 27,  0,  0,  0,  0,  0,  0,  0,  0, 23,  0,  0
6, 10923, 2,N0AHK,     0.11, 3,   boost,  103.46,  99365.00,  164.45,    0.85,   17.15, 35.4, 0.00, 0.00, 3.83, 124.29,   2.61,   4.63,  49.14,  -8.10,   1.57,   0.26,  -0.16,  -0.00,   2.44, 9.60, 0.00, 0.00, 0.00, 0.00, 1, 1,  9,  38.3986075, -78.0643634,   136.0, 2023,  4, 16, 16, 52,  7,        0,        0,   0,   0,   1.9,   1.4,   1.2, 30,  0,  0,  0,  0,  0,  0, 28,  0,  0,  0,  0, 36, 28,  0,  0, 31,  0, 34,  0, 27,  0,  0,  0,  0,  0,  0,  0,  0, 23,  0,  0
6, 10923, 2,N0AHK,     0.12, 3,   boost,  109.34,  99365.00,  164.45,    0.85,   18.23, 35.4, 0.00, 0.00, 3.83, 116.98,   9.79,   4.99,  13.19,  -7.18,  -1.54,   0.26,  -0.16,  -0.00,   2.51, 9.60, 0.00, 0.00, 0.00, 0.00, 1, 1,  9,  38.3986075, -78.0643634,   136.0, 2023,  4, 16, 16, 52,  7,        0,        0,   0,   0,   1.9,   1.4,   1.2, 30,  0,  0,  0,  0,  0,  0, 28,  0,  0,  0,  0, 36, 28,  0,  0, 31,  0, 34,  0, 27,  0,  0,  0,  0,  0,  0,  0,  0, 23,  0,  0
6, 10923, 2,N0AHK,     0.13, 3,   boost,  111.80,  99333.00,  167.15,    3.55,   19.32, 35.5, 0.00, 0.00, 3.83, 120.28,  -1.93,   0.63, -12.33,  -5.29,   3.89,   0.26,  -0.16,  -0.00,   2.53, 9.60, 0.00, 0.00, 0.00, 0.00, 1, 1,  9,  38.3986075, -78.0643634,   136.0, 2023,  4, 16, 16, 52,  7,        0,        0,   0,   0,   1.9,   1.4,   1.2, 30,  0,  0,  0,  0,  0,  0, 28,  0,  0,  0,  0, 36, 28,  0,  0, 31,  0, 34,  0, 27,  0,  0,  0,  0,  0,  0,  0,  0, 23,  0,  0
6, 10923, 2,N0AHK,     0.14, 3,   boost,  111.31,  99333.00,  167.15,    3.55,   20.42, 35.5, 0.00, 0.00, 3.83, 120.50,   0.46,   0.06,   3.60,  -4.01,  -0.44,   0.26,  -0.15,  -0.00,   2.57, 9.60, 0.00, 0.00, 0.00, 0.00, 1, 1,  9,  38.3986075, -78.0643634,   136.0, 2023,  4, 16, 16, 52,  7,        0,        0,   0,   0,   1.9,   1.4,   1.2, 30,  0,  0,  0,  0,  0,  0, 28,  0,  0,  0,  0, 36, 28,  0,  0, 31,  0, 34,  0, 27,  0,  0,  0,  0,  0,  0,  0,  0, 23,  0,  0
6, 10923, 2,N0AHK,     0.15, 3,   boost,  109.34,  99343.00,  166.31,    2.71,   21.52, 35.5, 0.00, 0.00, 3.83, 120.14,  11.84,   0.68, -30.70,  -4.44,  -1.85,   0.27,  -0.16,  -0.00,   2.62, 9.60, 0.00, 0.00, 0.00, 0.00, 1, 1,  9,  38.3986075, -78.0643634,   136.0, 2023,  4, 16, 16, 52,  7,        0,        0,   0,   0,   1.9,   1.4,   1.2, 30,  0,  0,  0,  0,  0,  0, 28,  0,  0,  0,  0, 36, 28,  0,  0, 31,  0, 34,  0, 27,  0,  0,  0,  0,  0,  0,  0,  0, 23,  0,  0
6, 10923, 2,N0AHK,     0.16, 3,   boost,  110.82,  99343.00,  166.31,    2.71,   22.64, 35.5, 0.00, 0.00, 3.83, 120.51,  -4.10,   3.90, -60.79,  -2.36,  -3.86,   0.27,  -0.16,  -0.00,   2.66, 9.60, 0.00, 0.00, 0.00, 0.00, 1, 1,  9,  38.3986075, -78.0643634,   136.0, 2023,  4, 16, 16, 52,  7,        0,        0,   0,   0,   1.9,   1.4,   1.2, 30,  0,  0,  0,  0,  0,  0, 28,  0,  0,  0,  0, 36, 28,  0,  0, 31,  0, 34,  0, 27,  0,  0,  0,  0,  0,  0,  0,  0, 23,  0,  0
6, 10923, 2,N0AHK,     0.17, 3,   boost,  113.76,  99328.00,  167.58,    3.98,   23.76, 35.5, 0.00, 0.00, 3.83, 122.46,   2.62,  -2.78, -33.38,  -1.75,  -2.64,   0.26,  -0.16,  -0.01,   2.69, 9.60, 0.00, 0.00, 0.00, 0.00, 1, 1,  9,  38.3986075, -78.0643634,   136.0, 2023,  4, 16, 16, 52,  7,        0,        0,   0,   0,   1.9,   1.4,   1.2, 30,  0,  0,  0,  0,  0,  0, 28,  0,  0,  0,  0, 36, 28,  0,  0, 31,  0, 34,  0, 27,  0,  0,  0,  0,  0,  0,  0,  0, 23,  0,  0
6, 10923, 2,N0AHK,     0.18, 3,   boost,  114.25,  99328.00,  167.58,    3.98,   24.89, 35.5, 0.00, 0.00, 3.83, 123.67,   4.76,  -0.24, -51.08,   2.22,  -2.64,   0.27,  -0.16,  -0.01,   2.68, 9.60, 0.00, 0.00, 0.00, 0.00, 1, 1,  9,  38.3986075, -78.0643634,   136.0, 2023,  4, 16, 16, 52,  7,        0,        0,   0,   0,   1.9,   1.4,   1.2, 30,  0,  0,  0,  0,  0,  0, 28,  0,  0,  0,  0, 36, 28,  0,  0, 31,  0, 34,  0, 27,  0,  0,  0,  0,  0,  0,  0,  0, 23,  0,  0
6, 10923, 2,N0AHK,     0.19, 3,   boost,  113.76,  99315.00,  168.68,    5.07,   26.02, 35.5, 0.00, 0.00, 3.83, 123.12,  -5.60,   5.14, -33.75,   3.68,  -1.85,   0.26,  -0.16,  -0.01,   2.66, 9.60, 0.00, 0.00, 0.00, 0.00, 1, 1,  9,  38.3986075, -78.0643634,   136.0, 2023,  4, 16, 16, 52,  7,        0,        0,   0,   0,   1.9,   1.4,   1.2, 30,  0,  0,  0,  0,  0,  0, 28,  0,  0,  0,  0, 36, 28,  0,  0, 31,  0, 34,  0, 27,  0,  0,  0,  0,  0,  0,  0,  0, 23,  0,  0
6, 10923, 2,N0AHK,     0.20, 3,   boost,  115.72,  99315.00,  168.68,    5.07,   27.16, 35.5, 0.00, 0.00, 3.83, 124.48,   7.66,  -1.81, -45.23,   3.19,  -5.33,   0.26,  -0.16,  -0.01,   2.66, 9.60, 0.00, 0.00, 0.00, 0.00, 1, 1,  9,  38.3986075, -78.0643634,   136.0, 2023,  4, 16, 16, 52,  7,        0,        0,   0,   0,   1.9,   1.4,   1.2, 30,  0,  0,  0,  0,  0,  0, 28,  0,  0,  0,  0, 36, 28,  0,  0, 31,  0, 34,  0, 27,  0,  0,  0,  0,  0,  0,  0,  0, 23,  0,  0
6, 10923, 2,N0AHK,     0.21, 3,   boost,  113.76,  99309.00,  169.18,    5.58,   28.31, 35.5, 0.00, 0.00, 3.83, 124.37,  -4.71,   4.55, -39.24,   5.09,  -3.92,   0.26,  -0.16,  -0.01,   2.64, 9.60, 0.00, 0.00, 0.00, 0.00, 1, 1,  9,  38.3986075, -78.0643634,   136.0, 2023,  4, 16, 16, 52,  7,        0,        0,   0,   0,   1.9,   1.4,   1.2, 30,  0,  0,  0,  0,  0,  0, 28,  0,  0,  0,  0, 36, 28,  0,  0, 31,  0, 34,  0, 27,  0,  0,  0,  0,  0,  0,  0,  0, 23,  0,  0
6, 10923, 2,N0AHK,     0.22, 3,   boost,  114.25,  99309.00,  169.18,    5.58,   29.45, 35.5, 0.00, 0.00, 3.83, 125.35,   5.08,  -0.80, -42.97,   5.33,  -5.57,   0.26,  -0.16,  -0.01,   2.63, 9.60, 0.00, 0.00, 0.00, 0.00, 1, 1,  9,  38.3986075, -78.0643634,   136.0, 2023,  4, 16, 16, 52,  7,        0,        0,   0,   0,   1.9,   1.4,   1.2, 30,  0,  0,  0,  0,  0,  0, 28,  0,  0,  0,  0, 36, 28,  0,  0, 31,  0, 34,  0, 27,  0,  0,  0,  0,  0,  0,  0,  0, 23,  0,  0
6, 10923, 2,N0AHK,     0.23, 3,   boost,  115.72,  99302.00,  169.78,    6.17,   30.60, 35.5, 0.00, 0.00, 3.83, 125.53,  -2.33,   3.80, -43.03,   6.00,  -6.55,   0.26,  -0.16,  -0.01,   2.62, 9.60, 0.00, 0.00, 0.00, 0.00, 1, 1,  9,  38.3986075, -78.0643634,   136.0, 2023,  4, 16, 16, 52,  7,        0,        0,   0,   0,   1.9,   1.4,   1.2, 30,  0,  0,  0,  0,  0,  0, 28,  0,  0,  0,  0, 36, 28,  0,  0, 31,  0, 34,  0, 27,  0,  0,  0,  0,  0,  0,  0,  0, 23,  0,  0
6, 10923, 2,N0AHK,     0.24, 3,   boost,  114.74,  99302.00,  169.78,    6.17,   31.75, 35.5, 0.00, 0.00, 3.83, 125.78,   3.16,  -0.18, -41.32,   6.37,  -7.52,   0.26,  -0.16,  -0.02,   2.61, 9.60, 0.00, 0.00, 0.00, 0.00, 1, 1,  9,  38.3986075, -78.0643634,   136.0, 2023,  4, 16, 16, 52,  7,        0,        0,   0,   0,   1.9,   1.4,   1.2, 30,  0,  0,  0,  0,  0,  0, 28,  0,  0,  0,  0, 36, 28,  0,  0, 31,  0, 34,  0, 27,  0,  0,  0,  0,  0,  0,  0,  0, 23,  0,  0
6, 10923, 2,N0AHK,     0.25, 3,   boost,  116.21,  99280.00,  171.64,    8.04,   32.90, 35.5, 0.00, 0.00, 3.83, 126.01,  -1.26,   4.23, -44.00,   6.55,  -9.23,   0.26,  -0.16,  -0.02,   2.62, 9.60, 0.00, 0.00, 0.00, 0.00, 1, 1,  9,  38.3986075, -78.0643634,   136.0, 2023,  4, 16, 16, 52,  7,        0,        0,   0,   0,   1.9,   1.4,   1.2, 30,  0,  0,  0,  0,  0,  0, 28,  0,  0,  0,  0, 36, 28,  0,  0, 31,  0, 34,  0, 27,  0,  0,  0,  0,  0,  0,  0,  0, 23,  0,  0
6, 10923, 2,N0AHK,     0.26, 3,   boost,  114.25,  99280.00,  171.64,    8.04,   34.06, 35.5, 0.00, 0.00, 3.83, 126.28,   1.84,  -0.07, -41.38,   5.82, -10.82,   0.27,  -0.16,  -0.02,   2.65, 9.60, 0.00, 0.00, 0.00, 0.00, 1, 1,  9,  38.3986075, -78.0643634,   136.0, 2023,  4, 16, 16, 52,  7,        0,        0,   0,   0,   1.9,   1.4,   1.2, 30,  0,  0,  0,  0,  0,  0, 28,  0,  0,  0,  0, 36, 28,  0,  0, 31,  0, 34,  0, 27,  0,  0,  0,  0,  0,  0,  0,  0, 23,  0,  0
6, 10923, 2,N0AHK,     0.27, 3,   boost,  116.70,  99281.00,  171.55,    7.95,   35.21, 35.5, 0.00, 0.00, 3.83, 126.34,  -0.33,   3.50, -44.68,   6.31, -12.28,   0.26,  -0.16,  -0.02,   2.69, 9.60, 0.00, 0.00, 0.00, 0.00, 1, 1,  9,  38.3986075, -78.0643634,   136.0, 2023,  4, 16, 16, 52,  7,        0,        0,   0,   0,   1.9,   1.4,   1.2, 30,  0,  0,  0,  0,  0,  0, 28,  0,  0,  0,  0, 36, 28,  0,  0, 31,  0, 34,  0, 27,  0,  0,  0,  0,  0,  0,  0,  0, 23,  0,  0
6, 10923, 2,N0AHK,     0.28, 3,   boost,  117.19,  99281.00,  171.55,    7.95,   36.37, 35.5, 0.00, 0.00, 3.83, 126.49,   1.02,   0.80, -41.01,   6.00, -13.69,   0.27,  -0.16,  -0.02,   2.74, 9.60, 0.00, 0.00, 0.00, 0.00, 1, 1,  9,  38.3986075, -78.0643634,   136.0, 2023,  4, 16, 16, 52,  7,        0,        0,   0,   0,   1.9,   1.4,   1.2, 30,  0,  0,  0,  0,  0,  0, 28,  0,  0,  0,  0, 36, 28,  0,  0, 31,  0, 34,  0, 27,  0,  0,  0,  0,  0,  0,  0,  0, 23,  0,  0
6, 10923, 2,N0AHK,     0.29, 3,   boost,  115.72,  99275.00,  172.06,    8.46,   37.53, 35.5, 0.00, 0.00, 3.83, 126.92,   0.58,   2.62, -43.82,   6.25, -14.97,   0.27,  -0.16,  -0.02,   2.82, 9.60, 0.00, 0.00, 0.00, 0.00, 1, 1,  9,  38.3986075, -78.0643634,   136.0, 2023,  4, 16, 16, 52,  7,        0,        0,   0,   0,   1.9,   1.4,   1.2, 30,  0,  0,  0,  0,  0,  0, 28,  0,  0,  0,  0, 36, 28,  0,  0, 31,  0, 34,  0, 27,  0,  0,  0,  0,  0,  0,  0,  0, 23,  0,  0
6, 10923, 2,N0AHK,     0.30, 3,   boost,  116.21,  99275.00,  172.06,    8.46,   38.70, 35.5, 0.00, 0.00, 3.83, 127.08,   0.40,   1.16, -39.85,   5.82, -16.37,   0.27,  -0.16,  -0.03,   2.91, 9.60, 0.00, 0.00, 0.00, 0.00, 1, 1,  9,  38.3986075, -78.0643634,   136.0, 2023,  4, 16, 16, 52,  7,        0,        0,   0,   0,   1.9,   1.4,   1.2, 30,  0,  0,  0,  0,  0,  0, 28,  0,  0,  0,  0, 36, 28,  0,  0, 31,  0, 34,  0, 27,  0,  0,  0,  0,  0,  0,  0,  0, 23,  0,  0
6, 10923, 2,N0AHK,     0.31, 3,   boost,  116.21,  99259.00,  173.42,    9.81,   39.86, 35.5, 0.00, 0.00, 3.83, 127.11,   0.64,   2.01, -41.93,   6.73, -18.08,   0.27,  -0.16,  -0.03,   3.01, 9.60, 0.00, 0.00, 0.00, 0.00, 1, 1,  9,  38.3986075, -78.0643634,   136.0, 2023,  4, 16, 16, 52,  7,        0,        0,   0,   0,   1.9,   1.4,   1.2, 30,  0,  0,  0,  0,  0,  0, 28,  0,  0,  0,  0, 36, 28,  0,  0, 31,  0, 34,  0, 27,  0,  0,  0,  0,  0,  0,  0,  0, 23,  0,  0
6, 10923, 2,N0AHK,     0.32, 3,   boost,  116.70,  99259.00,  173.42,    9.81,   41.03, 35.5, 0.00, 0.00, 3.83, 127.40,   0.32,   1.49, -38.76,   6.73, -19.61,   0.27,  -0.16,  -0.03,   3.14, 9.60, 0.00, 0.00, 0.00, 0.00, 1, 1,  9,  38.3986075, -78.0643634,   136.0, 2023,  4, 16, 16, 52,  7,        0,        0,   0,   0,   1.9,   1.4,   1.2, 30,  0,  0,  0,  0,  0,  0, 28,  0,  0,  0,  0, 36, 28,  0,  0, 31,  0, 34,  0, 27,  0,  0,  0,  0,  0,  0,  0,  0, 23,  0,  0
6, 10923, 2,N0AHK,     0.33, 3,   boost,  119.15,  99253.00,  173.92,   10.32,   42.20, 35.5, 0.00, 0.00, 3.83, 127.87,   1.04,   1.86, -40.04,   6.92, -20.83,   0.27,  -0.16,  -0.03,   3.28, 9.60, 0.00, 0.00, 0.00, 0.00, 1, 1,  9,  38.3986075, -78.0643634,   136.0, 2023,  4, 16, 16, 52,  7,        0,        0,   0,   0,   1.9,   1.4,   1.2, 30,  0,  0,  0,  0,  0,  0, 28,  0,  0,  0,  0, 36, 28,  0,  0, 31,  0, 34,  0, 27,  0,  0,  0,  0,  0,  0,  0,  0, 23,  0,  0
6, 10923, 2,N0AHK,     0.34, 3,   boost,  116.70,  99253.00,  173.92,   10.32,   43.37, 35.5, 0.00, 0.00, 3.84, 127.61,   0.45,   1.99, -37.53,   6.92, -22.41,   0.27,  -0.16,  -0.03,   3.45, 9.59, 0.00, 0.00, 0.00, 0.00, 1, 1,  9,  38.3986075, -78.0643634,   136.0, 2023,  4, 16, 16, 52,  7,        0,        0,   0,   0,   1.9,   1.4,   1.2, 30,  0,  0,  0,  0,  0,  0, 28,  0,  0,  0,  0, 36, 28,  0,  0, 31,  0, 34,  0, 27,  0,  0,  0,  0,  0,  0,  0,  0, 23,  0,  0
6, 10923, 2,N0AHK,     0.34, 3,   boost,  116.70,  99253.00,  173.92,   10.32,   43.37, 35.5, 0.00, 0.00, 3.84, 127.61,   0.45,   1.99, -37.53,   6.92, -22.41,   0.27,  -0.16,  -0.03,   3.45, 9.59, 0.00, 0.00, 0.00, 0.00, 1, 1,  9,  38.3986075, -78.0643634,   136.0, 2023,  4, 16, 16, 52,  7,        0,        0,   0,   0,   1.9,   1.4,   1.2, 30,  0,  0,  0,  0,  0,  0, 28,  0,  0,  0,  0, 36, 28,  0,  0, 31,  0, 34,  0, 27,  0,  0,  0,  0,  0,  0,  0,  0, 23,  0,  0
6, 10923, 2,N0AHK,     0.35, 3,   boost,  117.68,  99245.00,  174.60,   11.00,   44.53, 35.5, 0.00, 0.00, 3.84, 128.05,   0.06,   1.95, -38.88,   7.34, -23.33,   0.28,  -0.16,  -0.03,   3.63, 9.59, 0.00, 0.00, 0.00, 0.00, 1, 1,  9,  38.3986075, -78.0643634,   136.0, 2023,  4, 16, 16, 52,  7,        0,        0,   0,   0,   1.9,   1.4,   1.2, 30,  0,  0,  0,  0,  0,  0, 28,  0,  0,  0,  0, 36, 28,  0,  0, 31,  0, 34,  0, 27,  0,  0,  0,  0,  0,  0,  0,  0, 23,  0,  0
6, 10923, 2,N0AHK,     0.36, 3,   boost,  116.21,  99245.00,  174.60,   11.00,   45.70, 35.5, 0.00, 0.00, 3.84, 127.77,   1.57,   1.67, -37.96,   7.71, -24.80,   0.27,  -0.16,  -0.03,   3.82, 9.59, 0.00, 0.00, 0.00, 0.00, 1, 1,  9,  38.3986075, -78.0643634,   136.0, 2023,  4, 16, 16, 52,  7,        0,        0,   0,   0,   1.9,   1.4,   1.2, 30,  0,  0,  0,  0,  0,  0, 28,  0,  0,  0,  0, 36, 28,  0,  0, 31,  0, 34,  0, 27,  0,  0,  0,  0,  0,  0,  0,  0, 23,  0,  0
6, 10923, 2,N0AHK,     0.37, 3,   boost,  116.21,  99237.00,  175.28,   11.68,   46.87, 35.5, 0.00, 0.00, 3.84, 127.72,   0.70,   1.53, -39.24,   7.95, -25.89,   0.27,  -0.16,  -0.04,   4.03, 9.59, 0.00, 0.00, 0.00, 0.00, 1, 1,  9,  38.3986075, -78.0643634,   136.0, 2023,  4, 16, 16, 52,  7,        0,        0,   0,   0,   1.9,   1.4,   1.2, 30,  0,  0,  0,  0,  0,  0, 28,  0,  0,  0,  0, 36, 28,  0,  0, 31,  0, 34,  0, 27,  0,  0,  0,  0,  0,  0,  0,  0, 23,  0,  0
6, 10923, 2,N0AHK,     0.38, 3,   boost,  117.68,  99237.00,  175.28,   11.68,   48.03, 35.5, 0.00, 0.00, 3.84, 127.99,   1.60,   2.62, -39.06,   7.89, -26.63,   0.28,  -0.16,  -0.04,   4.26, 9.59, 0.00, 0.00, 0.00, 0.00, 1, 1,  9,  38.3986075, -78.0643634,   136.0, 2023,  4, 16, 16, 52,  7,        0,        0,   0,   0,   1.9,   1.4,   1.2, 30,  0,  0,  0,  0,  0,  0, 28,  0,  0,  0,  0, 36, 28,  0,  0, 31,  0, 34,  0, 27,  0,  0,  0,  0,  0,  0,  0,  0, 23,  0,  0
6, 10923, 2,N0AHK,     0.39, 3,   boost,  116.21,  99232.00,  175.70,   12.10,   49.20, 35.5, 0.00, 0.00, 3.84, 127.81,   0.94,   1.55, -40.65,   7.71, -27.42,   0.28,  -0.16,  -0.04,   4.50, 9.59, 0.00, 0.00, 0.00, 0.00, 1, 1,  9,  38.3986075, -78.0643634,   136.0, 2023,  4, 16, 16, 52,  7,        0,        0,   0,   0,   1.9,   1.4,   1.2, 30,  0,  0,  0,  0,  0,  0, 28,  0,  0,  0,  0, 36, 28,  0,  0, 31,  0, 34,  0, 27,  0,  0,  0,  0,  0,  0,  0,  0, 23,  0,  0
6, 10923, 2,N0AHK,     0.40, 3,   boost,  116.21,  99232.00,  175.70,   12.10,   50.36, 35.5, 0.00, 0.00, 3.84, 128.05,   1.88,   2.37, -41.50,   7.59, -28.21,   0.27,  -0.15,  -0.04,   4.75, 9.59, 0.00, 0.00, 0.00, 0.00, 1, 1,  9,  38.3986075, -78.0643634,   136.0, 2023,  4, 16, 16, 52,  7,        0,        0,   0,   0,   1.9,   1.4,   1.2, 30,  0,  0,  0,  0,  0,  0, 28,  0,  0,  0,  0, 36, 28,  0,  0, 31,  0, 34,  0, 27,  0,  0,  0,  0,  0,  0,  0,  0, 23,  0,  0
6, 10923, 2,N0AHK,     0.41, 3,   boost,  118.17,  99230.00,  175.87,   12.27,   51.52, 35.5, 0.00, 0.00, 3.84, 127.49,   1.94,   2.44, -40.95,   7.10, -28.09,   0.27,  -0.15,  -0.04,   5.00, 9.59, 0.00, 0.00, 0.00, 0.00, 1, 1,  9,  38.3986075, -78.0643634,   136.0, 2023,  4, 16, 16, 52,  7,        0,        0,   0,   0,   1.9,   1.4,   1.2, 30,  0,  0,  0,  0,  0,  0, 28,  0,  0,  0,  0, 36, 28,  0,  0, 31,  0, 34,  0, 27,  0,  0,  0,  0,  0,  0,  0,  0, 23,  0,  0
6, 10923, 2,N0AHK,     0.42, 3,   boost,  116.21,  99230.00,  175.87,   12.27,   52.68, 35.5, 0.00, 0.00, 3.84, 127.36,   1.78,   2.02, -43.09,   6.55, -28.34,   0.27,  -0.15,  -0.04,   5.26, 9.59, 0.00, 0.00, 0.00, 0.00, 1, 1,  9,  38.3986075, -78.0643634,   136.0, 2023,  4, 16, 16, 52,  7,        0,        0,   0,   0,   1.9,   1.4,   1.2, 30,  0,  0,  0,  0,  0,  0, 28,  0,  0,  0,  0, 36, 28,  0,  0, 31,  0, 34,  0, 27,  0,  0,  0,  0,  0,  0,  0,  0, 23,  0,  0
6, 10923, 2,N0AHK,     0.43, 3,   boost,  116.70,  99200.00,  178.41,   14.81,   53.84, 35.5, 0.00, 0.00, 3.84, 127.18,   2.49,   2.89, -42.48,   5.39, -28.95,   0.28,  -0.15,  -0.05,   5.53, 9.59, 0.00, 0.00, 0.00, 0.00, 1, 1,  9,  38.3986075, -78.0643634,   136.0, 2023,  4, 16, 16, 52,  7,        0,        0,   0,   0,   1.9,   1.4,   1.2, 30,  0,  0,  0,  0,  0,  0, 28,  0,  0,  0,  0, 36, 28,  0,  0, 31,  0, 34,  0, 27,  0,  0,  0,  0,  0,  0,  0,  0, 23,  0,  0
6, 10923, 2,N0AHK,     0.44, 3,   boost,  115.72,  99200.00,  178.41,   14.81,   55.00, 35.5, 0.00, 0.00, 3.84, 126.93,  -0.06,   1.83, -44.19,   4.96, -30.53,   0.28,  -0.15,  -0.05,   5.82, 9.59, 0.00, 0.00, 0.00, 0.00, 1, 1,  9,  38.3986075, -78.0643634,   136.0, 2023,  4, 16, 16, 52,  7,        0,        0,   0,   0,   1.9,   1.4,   1.2, 30,  0,  0,  0,  0,  0,  0, 28,  0,  0,  0,  0, 36, 28,  0,  0, 31,  0, 34,  0, 27,  0,  0,  0,  0,  0,  0,  0,  0, 23,  0,  0
6, 10923, 2,N0AHK,     0.45, 3,   boost,  116.70,  99200.00,  178.41,   14.81,   56.16, 35.5, 0.00, 0.00, 3.84, 126.59,   3.47,   2.22, -44.37,   4.41, -31.63,   0.28,  -0.15,  -0.05,   6.12, 9.59, 0.00, 0.00, 0.00, 0.00, 1, 1,  9,  38.3986075, -78.0643634,   136.0, 2023,  4, 16, 16, 52,  7,        0,        0,   0,   0,   1.9,   1.4,   1.2, 30,  0,  0,  0,  0,  0,  0, 28,  0,  0,  0,  0, 36, 28,  0,  0, 31,  0, 34,  0, 27,  0,  0,  0,  0,  0,  0,  0,  0, 23,  0,  0
6, 10923, 2,N0AHK,     0.46, 3,   boost,  116.21,  99200.00,  178.41,   14.81,   57.31, 35.5, 0.00, 0.00, 3.84, 126.76,   0.50,   2.03, -45.71,   3.80, -32.12,   0.28,  -0.14,  -0.05,   6.43, 9.59, 0.00, 0.00, 0.00, 0.00, 1, 1,  9,  38.3986075, -78.0643634,   136.0, 2023,  4, 16, 16, 52,  7,        0,        0,   0,   0,   1.9,   1.4,   1.2, 30,  0,  0,  0,  0,  0,  0, 28,  0,  0,  0,  0, 36, 28,  0,  0, 31,  0, 34,  0, 27,  0,  0,  0,  0,  0,  0,  0,  0, 23,  0,  0
6, 10923, 2,N0AHK,     0.47, 3,   boost,  116.21,  99183.00,  179.85,   16.25,   58.47, 35.5, 0.00, 0.00, 3.84, 126.97,   2.95,   1.66, -47.00,   3.56, -33.71,   0.27,  -0.14,  -0.05,   6.75, 9.59, 0.00, 0.00, 0.00, 0.00, 1, 1,  9,  38.3986075, -78.0643634,   136.0, 2023,  4, 16, 16, 52,  7,        0,        0,   0,   0,   1.9,   1.4,   1.2, 30,  0,  0,  0,  0,  0,  0, 28,  0,  0,  0,  0, 36, 28,  0,  0, 31,  0, 34,  0, 27,  0,  0,  0,  0,  0,  0,  0,  0, 23,  0,  0
6, 10923, 2,N0AHK,     0.48, 3,   boost,  115.72,  99183.00,  179.85,   16.25,   59.61, 35.5, 0.00, 0.00, 3.84, 126.77,   1.54,   2.27, -46.57,   3.13, -34.38,   0.29,  -0.14,  -0.05,   7.09, 9.59, 0.00, 0.00, 0.00, 0.00, 1, 1,  9,  38.3986075, -78.0643634,   136.0, 2023,  4, 16, 16, 52,  7,        0,        0,   0,   0,   1.9,   1.4,   1.2, 30,  0,  0,  0,  0,  0,  0, 28,  0,  0,  0,  0, 36, 28,  0,  0, 31,  0, 34,  0, 27,  0,  0,  0,  0,  0,  0,  0,  0, 23,  0,  0
6, 10923, 2,N0AHK,     0.49, 3,   boost,  115.23,  99168.00,  181.12,   17.52,   60.76, 35.5, 0.00, 0.00, 3.84, 126.56,   3.71,   0.96, -44.25,   3.38, -34.68,   0.29,  -0.14,  -0.05,   7.42, 9.59, 0.00, 0.00, 0.00, 0.00, 1, 1,  9,  38.3986075, -78.0643634,   136.0, 2023,  4, 16, 16, 52,  7,        0,        0,   0,   0,   1.9,   1.4,   1.2, 30,  0,  0,  0,  0,  0,  0, 28,  0,  0,  0,  0, 36, 28,  0,  0, 31,  0, 34,  0, 27,  0,  0,  0,  0,  0,  0,  0,  0, 23,  0,  0
6, 10923, 2,N0AHK,     0.50, 3,   boost,  114.74,  99168.00,  181.12,   17.52,   61.90, 35.5, 0.00, 0.00, 3.84, 126.28,   2.59,   2.77, -43.88,   3.25, -33.71,   0.28,  -0.13,  -0.06,   7.75, 9.59, 0.00, 0.00, 0.00, 0.00, 1, 1,  9,  38.3986075, -78.0643634,   136.0, 2023,  4, 16, 16, 52,  7,        0,        0,   0,   0,   1.9,   1.4,   1.2, 30,  0,  0,  0,  0,  0,  0, 28,  0,  0,  0,  0, 36, 28,  0,  0, 31,  0, 34,  0, 27,  0,  0,  0,  0,  0,  0,  0,  0, 23,  0,  0
6, 10923, 2,N0AHK,     0.51, 3,   boost,  115.72,  99163.00,  181.54,   17.94,   63.04, 35.5, 0.00, 0.00, 3.84, 126.30,   4.30,   0.96, -44.19,   2.58, -33.16,   0.28,  -0.13,  -0.06,   8.07, 9.59, 0.00, 0.00, 0.00, 0.00, 1, 1,  9,  38.3986075, -78.0643634,   136.0, 2023,  4, 16, 16, 52,  7,        0,        0,   0,   0,   1.9,   1.4,   1.2, 30,  0,  0,  0,  0,  0,  0, 28,  0,  0,  0,  0, 36, 28,  0,  0, 31,  0, 34,  0, 27,  0,  0,  0,  0,  0,  0,  0,  0, 23,  0,  0
6, 10923, 2,N0AHK,     0.52, 3,   boost,  113.76,  99163.00,  181.54,   17.94,   64.18, 35.5, 0.00, 0.00, 3.84, 125.95,   1.74,   3.27, -44.55,   2.28, -33.04,   0.28,  -0.13,  -0.06,   8.39, 9.59, 0.00, 0.00, 0.00, 0.00, 1, 1,  9,  38.3986075, -78.0643634,   136.0, 2023,  4, 16, 16, 52,  7,        0,        0,   0,   0,   1.9,   1.4,   1.2, 30,  0,  0,  0,  0,  0,  0, 28,  0,  0,  0,  0, 36, 28,  0,  0, 31,  0, 34,  0, 27,  0,  0,  0,  0,  0,  0,  0,  0, 23,  0,  0
6, 10923, 2,N0AHK,     0.53, 3,   boost,  115.23,  99139.00,  183.58,   19.98,   65.31, 35.5, 0.00, 0.00, 3.84, 125.53,   5.22,   1.16, -42.97,   1.00, -32.36,   0.28,  -0.13,  -0.06,   8.71, 9.59, 0.00, 0.00, 0.00, 0.00, 1, 1,  9,  38.3986075, -78.0643634,   136.0, 2023,  4, 16, 16, 52,  7,        0,        0,   0,   0,   1.9,   1.4,   1.2, 30,  0,  0,  0,  0,  0,  0, 28,  0,  0,  0,  0, 36, 28,  0,  0, 31,  0, 34,  0, 27,  0,  0,  0,  0,  0,  0,  0,  0, 23,  0,  0
6, 10923, 2,N0AHK,     0.54, 3,   boost,  115.72,  99139.00,  183.58,   19.98,   66.45, 35.5, 0.00, 0.00, 3.84, 125.78,   2.00,   2.68, -42.11,   0.69, -32.06,   0.28,  -0.13,  -0.06,   9.03, 9.59, 0.00, 0.00, 0.00, 0.00, 1, 1,  9,  38.3986075, -78.0643634,   136.0, 2023,  4, 16, 16, 52,  7,        0,        0,   0,   0,   1.9,   1.4,   1.2, 30,  0,  0,  0,  0,  0,  0, 28,  0,  0,  0,  0, 36, 28,  0,  0, 31,  0, 34,  0, 27,  0,  0,  0,  0,  0,  0,  0,  0, 23,  0,  0
6, 10923, 2,N0AHK,     0.55, 3,   boost,  114.74,  99118.00,  185.36,   21.76,   67.58, 35.5, 0.00, 0.00, 3.84, 125.27,   5.42,   0.88, -39.79,  -0.10, -31.33,   0.28,  -0.13,  -0.06,   9.34, 9.59, 0.00, 0.00, 0.00, 0.00, 1, 1,  9,  38.3986075, -78.0643634,   136.0, 2023,  4, 16, 16, 52,  7,        0,        0,   0,   0,   1.9,   1.4,   1.2, 30,  0,  0,  0,  0,  0,  0, 28,  0,  0,  0,  0, 36, 28,  0,  0, 31,  0, 34,  0, 27,  0,  0,  0,  0,  0,  0,  0,  0, 23,  0,  0
6, 10923, 2,N0AHK,     0.56, 3,   boost,  113.76,  99118.00,  185.36,   21.76,   68.71, 35.5, 0.00, 0.00, 3.84, 125.07,   3.10,   2.67, -36.56,  -0.53, -29.43,   0.28,  -0.13,  -0.06,   9.63, 9.59, 0.00, 0.00, 0.00, 0.00, 1, 1,  9,  38.3986075, -78.0643634,   136.0, 2023,  4, 16, 16, 52,  7,        0,        0,   0,   0,   1.9,   1.4,   1.2, 30,  0,  0,  0,  0,  0,  0, 28,  0,  0,  0,  0, 36, 28,  0,  0, 31,  0, 34,  0, 27,  0,  0,  0,  0,  0,  0,  0,  0, 23,  0,  0
